{"cities": [{"name": "Новосибирск", "center": [55.03, 82.92]}, {"name": "Краснодар", "center": [45.035, 39.03]}, {"name": "Екатеринбург", "center": [56.838, 60.605]}], "default_city": "Новосибирск", "updated": 1782869402, "stations": [{"id": "usr_yKhOxmQT8Cs", "city": "Новосибирск", "lat": 55.0560957739696, "lon": 82.92624330512864, "name": "Газпром", "addr": "", "status": "queue", "fuels_now": "92,95", "conflict": null, "src": "seed"}, {"id": "usr_M3BwRheaa_k", "city": "Новосибирск", "lat": 55.0115165091333, "lon": 82.86094129085542, "name": "Сиб-гсм", "addr": "", "status": "no", "fuels_now": "", "conflict": null, "src": "seed"}, {"id": "usr_O52rtIw8RTE", "city": "Новосибирск", "lat": 54.977462, "lon": 83.028259, "name": "Опти", "addr": "", "status": "low", "fuels_now": "", "conflict": null, "src": "seed"}, {"id": "usr_h-I07bVxgIg", "city": "Новосибирск", "lat": 54.978063, "lon": 83.014721, "name": "Газпромнефть", "addr": "", "status": "no", "fuels_now": "", "conflict": null, "src": "seed"}, {"id": "usr_wf3kHI3uR6I", "city": "Новосибирск", "lat": 55.00103931204959, "lon": 83.01269871902524, "name": "Прайм", "addr": "", "status": "no", "fuels_now": "", "conflict": null, "src": "seed"}, {"id": "usr_QxMZOvS3AUw", "city": "Новосибирск", "lat": 55.02990074381625, "lon": 82.94015765190126, "name": "Нк-нефть", "addr": "", "status": "no", "fuels_now": "", "conflict": null, "src": "seed"}, {"id": "usr_jdF3B0O1GMs", "city": "Новосибирск", "lat": 55.039022, "lon": 82.952122, "name": "Газпромнефть", "addr": "", "status": "no", "fuels_now": "", "conflict": null, "src": "seed"}, {"id": "usr__o4p4wd4nNQ", "city": "Новосибирск", "lat": 55.00388038117219, "lon": 83.05507739123641, "name": "Газпромнефть", "addr": "", "status": "no", "fuels_now": "", "conflict": null, "src": "seed"}, {"id": "usr_YC3busY3Ufg", "city": "Новосибирск", "lat": 55.098714, "lon": 82.979491, "name": "Газпром", "addr": "", "status": "yes", "fuels_now": "", "conflict": null, "src": "seed"}, {"id": "usr_zMVGI4Faz7o", "city": "Новосибирск", "lat": 55.060048247724446, "lon": 82.93606996536255, "name": "А Плюс", "addr": "", "status": "no", "fuels_now": "", "conflict": null, "src": "seed"}, {"id": "usr_9-vyVtCINQ0", "city": "Новосибирск", "lat": 55.07767007170836, "lon": 83.03444695891814, "name": "Прайм", "addr": "", "status": "no", "fuels_now": "", "conflict": null, "src": "seed"}, {"id": "usr_QCjLNpdN5G4", "city": "Новосибирск", "lat": 55.044347, "lon": 82.964815, "name": "Газпромнефть", "addr": "", "status": "no", "fuels_now": "", "conflict": null, "src": "seed"}, {"id": "usr_JhlIdxAKHCo", "city": "Новосибирск", "lat": 54.957285013866574, "lon": 82.94200301170349, "name": "ОПТИ", "addr": "", "status": "no", "fuels_now": "", "conflict": null, "src": "seed"}, {"id": "usr_ROxCPcIm-A4", "city": "Новосибирск", "lat": 55.00883412958504, "lon": 82.87460982799531, "name": "ГРАНД", "addr": "", "status": "low", "fuels_now": "92,95,98,100,ДТ", "conflict": null, "src": "seed"}, {"id": "usr_lLGBWZtGIZc", "city": "Новосибирск", "lat": 55.0272380429852, "lon": 82.9384732246399, "name": "ТАТНЕФТЬ", "addr": "", "status": "no", "fuels_now": "", "conflict": null, "src": "seed"}, {"id": "usr_uu2vBnWoKgI", "city": "Новосибирск", "lat": 55.04339600936656, "lon": 82.88369715213777, "name": "Татнефть", "addr": "", "status": "no", "fuels_now": "", "conflict": null, "src": "seed"}, {"id": "usr_kQIwF-2GEMU", "city": "Новосибирск", "lat": 55.051672290721555, "lon": 82.89180010557176, "name": "Прайм", "addr": "", "status": "no", "fuels_now": "", "conflict": null, "src": "seed"}, {"id": "usr_vIWYFQ5uD0s", "city": "Новосибирск", "lat": 54.96782092441671, "lon": 82.9224792122841, "name": "Газпромнефть", "addr": "", "status": "no", "fuels_now": "", "conflict": null, "src": "seed"}, {"id": "usr_emE6Xr47dYg", "city": "Новосибирск", "lat": 54.960425903565906, "lon": 82.94050902128221, "name": "Газпромнефть", "addr": "", "status": "no", "fuels_now": "", "conflict": null, "src": "seed"}, {"id": "usr_kQ_kc7xsnlE", "city": "Новосибирск", "lat": 54.97647918303312, "lon": 83.04498910903932, "name": "Прайм", "addr": "", "status": "no", "fuels_now": "", "conflict": null, "src": "seed"}, {"id": "usr_WzXNwXdLMLA", "city": "Новосибирск", "lat": 54.978237856141064, "lon": 83.02712559700014, "name": "Гранд", "addr": "", "status": "queue", "fuels_now": "92,95,98,100,ДТ", "conflict": null, "src": "seed"}, {"id": "usr_rxp2w4lTgUQ", "city": "Новосибирск", "lat": 54.94221269681316, "lon": 82.88889436846986, "name": "Газпромнефть", "addr": "", "status": "queue", "fuels_now": "92,95,98,100,ДТ", "conflict": null, "src": "seed"}, {"id": "usr_ka5C3Iw3uNQ", "city": "Новосибирск", "lat": 54.97698451077196, "lon": 83.05330245266305, "name": "TEBOIL", "addr": "", "status": "yes", "fuels_now": "92,95,98,100,ДТ", "conflict": null, "src": "seed"}, {"id": "usr_cQ9XuuHAurc", "city": "Новосибирск", "lat": 54.94863442708367, "lon": 82.89994060993195, "name": "Прайм", "addr": "", "status": "no", "fuels_now": "", "conflict": null, "src": "seed"}, {"id": "usr_oBzecvCM_jM", "city": "Новосибирск", "lat": 54.86341339165557, "lon": 83.07618856430055, "name": "Teboil", "addr": "", "status": "no", "fuels_now": "", "conflict": null, "src": "seed"}, {"id": "usr_jBA8kTiu2z8", "city": "Новосибирск", "lat": 55.1340520418347, "lon": 82.89050728082658, "name": "Опти", "addr": "", "status": "no", "fuels_now": "", "conflict": null, "src": "seed"}, {"id": "usr_lGhR_IIA0ts", "city": "Новосибирск", "lat": 55.029636326472435, "lon": 82.8029787540436, "name": "G7", "addr": "", "status": "no", "fuels_now": "", "conflict": null, "src": "seed"}, {"id": "usr_s4M2BD2KJFo", "city": "Новосибирск", "lat": 55.0294395496424, "lon": 82.80400335788727, "name": "Сибавтогаз", "addr": "", "status": null, "fuels_now": "", "conflict": null, "src": "seed"}, {"id": "usr_Td7fneZ39wY", "city": "Новосибирск", "lat": 55.02199821672513, "lon": 82.81497359275818, "name": "Роснефть", "addr": "", "status": "no", "fuels_now": "", "conflict": null, "src": "seed"}, {"id": "usr_wMXqgS6i1XY", "city": "Новосибирск", "lat": 54.931737593268274, "lon": 82.99826502799989, "name": "Опти", "addr": "", "status": "no", "fuels_now": "", "conflict": null, "src": "seed"}, {"id": "usr_c80Je2wPtTg", "city": "Новосибирск", "lat": 54.919185173400585, "lon": 82.9572379589081, "name": "Татнефть", "addr": "", "status": "yes", "fuels_now": "92", "conflict": null, "src": "seed"}, {"id": "usr_2Zz-kpCxVoY", "city": "Новосибирск", "lat": 55.008878734840295, "lon": 82.8666999936104, "name": "Газойл", "addr": "", "status": "no", "fuels_now": "", "conflict": null, "src": "seed"}, {"id": "usr_WuiXrhGjwZc", "city": "Новосибирск", "lat": 55.10618768989421, "lon": 82.97400376643056, "name": "Татнефть", "addr": "", "status": "no", "fuels_now": "", "conflict": null, "src": "seed"}, {"id": "usr_5PQ2Ye0nZf8", "city": "Новосибирск", "lat": 55.072899649569386, "lon": 82.90790498256682, "name": "Роснефть", "addr": "", "status": "no", "fuels_now": "", "conflict": null, "src": "seed"}, {"id": "usr_QZg_lgTte3c", "city": "Новосибирск", "lat": 55.0467381807288, "lon": 82.88025028241708, "name": "Газпромнефть", "addr": "", "status": "queue", "fuels_now": "92,95,98,ДТ", "conflict": null, "src": "seed"}, {"id": "usr_4-7yu_7AmqI", "city": "Новосибирск", "lat": 54.815269554142795, "lon": 83.09009313583375, "name": "Татнефть", "addr": "", "status": "yes", "fuels_now": "92,95", "conflict": null, "src": "seed"}, {"id": "usr_UY4tlpjFeJc", "city": "Новосибирск", "lat": 54.84601693877636, "lon": 83.06407034397127, "name": "Прайм", "addr": "", "status": "no", "fuels_now": "", "conflict": null, "src": "seed"}, {"id": "usr_vUvMg4rcqbc", "city": "Новосибирск", "lat": 54.84580381775398, "lon": 83.0656260251999, "name": "Прайм", "addr": "", "status": "no", "fuels_now": "", "conflict": null, "src": "seed"}, {"id": "usr_KxhtL0FdbYg", "city": "Новосибирск", "lat": 54.96462998203549, "lon": 82.85438372418774, "name": "Газпромнефть", "addr": "", "status": "queue", "fuels_now": "92,95,98,100,ДТ", "conflict": null, "src": "seed"}, {"id": "usr_gbiMXiZCc_Y", "city": "Новосибирск", "lat": 54.96045221943644, "lon": 82.93970960019139, "name": "Газпромнефть", "addr": "", "status": "queue", "fuels_now": "92,95,98,100,ДТ", "conflict": null, "src": "seed"}, {"id": "usr_olkypVRNs9I", "city": "Новосибирск", "lat": 55.08904636360246, "lon": 82.93752908706666, "name": "Энергия", "addr": "", "status": "no", "fuels_now": "", "conflict": null, "src": "seed"}, {"id": "usr_ienb5bEu_LQ", "city": "Новосибирск", "lat": 55.04205437156, "lon": 82.80099391937257, "name": "ПРАЙМ", "addr": "", "status": "no", "fuels_now": "", "conflict": null, "src": "seed"}, {"id": "usr_icbm_WbRB7Q", "city": "Новосибирск", "lat": 55.02996377327444, "lon": 82.93774902820589, "name": "ПРАЙМ", "addr": "", "status": "no", "fuels_now": "", "conflict": null, "src": "seed"}, {"id": "usr_xEC1P_JRZVI", "city": "Новосибирск", "lat": 54.99580386739811, "lon": 82.8043948349245, "name": "Энергия", "addr": "", "status": "no", "fuels_now": "", "conflict": null, "src": "seed"}, {"id": "usr_lvQrDVg-d4g", "city": "Новосибирск", "lat": 55.09041, "lon": 82.894038, "name": "Teboil", "addr": "", "status": "no", "fuels_now": "", "conflict": null, "src": "seed"}, {"id": "usr_ZTkPDzJRnz8", "city": "Новосибирск", "lat": 55.1324167361696, "lon": 82.97417923813555, "name": "Татнефть", "addr": "", "status": "queue", "fuels_now": "92,98", "conflict": null, "src": "seed"}, {"id": "usr_5plf59IDlXs", "city": "Новосибирск", "lat": 54.964813504038446, "lon": 82.92830805849333, "name": "Роснефть", "addr": "", "status": "no", "fuels_now": "", "conflict": null, "src": "seed"}, {"id": "usr_cGXVoFWM4Co", "city": "Новосибирск", "lat": 54.94187654562663, "lon": 82.91087865829469, "name": "Гарзпромнефть", "addr": "", "status": "yes", "fuels_now": "92,95,98,ДТ", "conflict": null, "src": "seed"}, {"id": "usr_50dz-7rA5Go", "city": "Новосибирск", "lat": 54.80833659345409, "lon": 83.08839825669595, "name": "Топаз", "addr": "", "status": "yes", "fuels_now": "92,95,98,ДТ", "conflict": null, "src": "seed"}, {"id": "usr__3RryAAcsPQ", "city": "Новосибирск", "lat": 54.82251576528603, "lon": 82.85061198765281, "name": "А+", "addr": "", "status": "no", "fuels_now": "", "conflict": null, "src": "seed"}, {"id": "usr_rBJuA6AcwNg", "city": "Новосибирск", "lat": 54.978424878990474, "lon": 83.02487790584564, "name": "Газпромнефть", "addr": "", "status": "queue", "fuels_now": "", "conflict": null, "src": "seed"}, {"id": "usr_OkfQulIbOwM", "city": "Новосибирск", "lat": 54.95814226724636, "lon": 82.95817136764528, "name": "Прайм", "addr": "", "status": "no", "fuels_now": "", "conflict": null, "src": "seed"}, {"id": "usr_UQKMX96M984", "city": "Новосибирск", "lat": 55.003670200991635, "lon": 83.02618682384492, "name": "Опти", "addr": "", "status": "no", "fuels_now": "", "conflict": null, "src": "seed"}, {"id": "472661878", "city": "Новосибирск", "lat": 54.9332184, "lon": 82.8153985, "name": "Лукойл", "addr": "", "status": "yes", "fuels_now": "", "conflict": null, "src": "seed"}, {"id": "472661887", "city": "Новосибирск", "lat": 54.9360875, "lon": 82.8173445, "name": "АГЗС Гранд", "addr": "", "status": "no", "fuels_now": "", "conflict": null, "src": "seed"}, {"id": "678597667", "city": "Новосибирск", "lat": 54.855637, "lon": 82.9831879, "name": "Топлаин", "addr": "Приморская улица, 1А", "status": "no", "fuels_now": "", "conflict": null, "src": "seed"}, {"id": "625082997", "city": "Новосибирск", "lat": 54.8436916, "lon": 83.0353562, "name": "Газпромнефть", "addr": "", "status": "queue", "fuels_now": "", "conflict": null, "src": "seed"}, {"id": "1133549485", "city": "Новосибирск", "lat": 54.9447527, "lon": 82.8477763, "name": "Топаз", "addr": "улица Петухова, 2/1", "status": null, "fuels_now": "", "conflict": null, "src": "seed"}, {"id": "472661912", "city": "Новосибирск", "lat": 54.945077, "lon": 82.8583031, "name": "Энергия", "addr": "улица Петухова, 19", "status": "low", "fuels_now": "", "conflict": null, "src": "seed"}, {"id": "634371472", "city": "Новосибирск", "lat": 54.9475586, "lon": 82.8597037, "name": "АЗС", "addr": "", "status": null, "fuels_now": "", "conflict": null, "src": "seed"}, {"id": "384745091", "city": "Новосибирск", "lat": 54.9609891, "lon": 82.8449289, "name": "Газпромнефть", "addr": "Троллейная улица, 152/2", "status": "queue", "fuels_now": "92,95,98,100,ДТ", "conflict": null, "src": "seed"}, {"id": "1143343936", "city": "Новосибирск", "lat": 54.9304493, "lon": 82.9296462, "name": "Опти", "addr": "улица Зорге, 275/1", "status": "no", "fuels_now": "", "conflict": null, "src": "seed"}, {"id": "1118380969", "city": "Новосибирск", "lat": 54.9392821, "lon": 82.9311209, "name": "Газпромнефть", "addr": "улица Петухова, 122/4", "status": "queue", "fuels_now": "95,98,ДТ", "conflict": null, "src": "seed"}, {"id": "370711133", "city": "Новосибирск", "lat": 54.9416253, "lon": 82.9365602, "name": "Топлайн", "addr": "улица Петухова, 79А к1", "status": "no", "fuels_now": "", "conflict": null, "src": "seed"}, {"id": "1119629250", "city": "Новосибирск", "lat": 54.893213, "lon": 82.9901827, "name": "Прайм", "addr": "Советское шоссе, 17", "status": "no", "fuels_now": "", "conflict": null, "src": "seed"}, {"id": "9748209570", "city": "Новосибирск", "lat": 54.8514309, "lon": 83.0634912, "name": "СибАвтоГаз", "addr": "Тихая улица, 4", "status": "no", "fuels_now": "", "conflict": null, "src": "seed"}, {"id": "627572834", "city": "Новосибирск", "lat": 54.8331784, "lon": 83.0847639, "name": "Топаз", "addr": "", "status": "yes", "fuels_now": "92,95,ДТ", "conflict": null, "src": "seed"}, {"id": "13957444619", "city": "Новосибирск", "lat": 54.8620906, "lon": 83.0983696, "name": "МАЗС Гранд", "addr": "Российская улица, 2", "status": "no", "fuels_now": "", "conflict": null, "src": "seed"}, {"id": "12995781578", "city": "Новосибирск", "lat": 54.8752232, "lon": 83.0767491, "name": "Газпромнефть", "addr": "Бердское шоссе, 470", "status": "queue", "fuels_now": "", "conflict": null, "src": "seed"}, {"id": "286568723", "city": "Новосибирск", "lat": 54.9266441, "lon": 83.076696, "name": "Топсиб", "addr": "Бердское шоссе, 65/1", "status": "yes", "fuels_now": "", "conflict": null, "src": "seed"}, {"id": "634368732", "city": "Новосибирск", "lat": 54.9574245, "lon": 83.0535727, "name": "АГЗС", "addr": "", "status": null, "fuels_now": "", "conflict": null, "src": "seed"}, {"id": "7285012458", "city": "Новосибирск", "lat": 54.9972294, "lon": 82.7823294, "name": "Газпромнефть", "addr": "", "status": "yes", "fuels_now": "", "conflict": null, "src": "seed"}, {"id": "634377577", "city": "Новосибирск", "lat": 54.9865284, "lon": 82.8335826, "name": "АЗС", "addr": "", "status": null, "fuels_now": "", "conflict": null, "src": "seed"}, {"id": "739413357", "city": "Новосибирск", "lat": 55.018377, "lon": 82.8111788, "name": "Большая", "addr": "Большая улица, 365/1", "status": "no", "fuels_now": "", "conflict": null, "src": "seed"}, {"id": "2371891541", "city": "Новосибирск", "lat": 55.023318, "lon": 82.8143714, "name": "Роснефть", "addr": "Большая улица, 582/1", "status": "no", "fuels_now": "", "conflict": null, "src": "seed"}, {"id": "611611771", "city": "Новосибирск", "lat": 54.9968478, "lon": 82.8665433, "name": "Газпром", "addr": "", "status": null, "fuels_now": "", "conflict": null, "src": "seed"}, {"id": "634377581", "city": "Новосибирск", "lat": 54.9966778, "lon": 82.8681673, "name": "АЗС", "addr": "", "status": null, "fuels_now": "", "conflict": null, "src": "seed"}, {"id": "704995826", "city": "Новосибирск", "lat": 54.9952221, "lon": 82.8666136, "name": "Teboil", "addr": "Широкая улица, 2Б к1", "status": "no", "fuels_now": "", "conflict": null, "src": "seed"}, {"id": "1118314335", "city": "Новосибирск", "lat": 55.0126749, "lon": 82.87873, "name": "Газпромнефть", "addr": "проезд Энергетиков, 8/1", "status": "yes", "fuels_now": "92,95,98,100,ДТ", "conflict": null, "src": "seed"}, {"id": "411247720", "city": "Новосибирск", "lat": 54.9703134, "lon": 82.898127, "name": "Опти", "addr": "улица Сибиряков-Гвардейцев, 42/1", "status": "no", "fuels_now": "", "conflict": null, "src": "seed"}, {"id": "393928718", "city": "Новосибирск", "lat": 54.979614, "lon": 82.9121397, "name": "Газпромнефть", "addr": "улица Немировича-Данченко, 145А", "status": "no", "fuels_now": "", "conflict": null, "src": "seed"}, {"id": "604665113", "city": "Новосибирск", "lat": 54.987637, "lon": 82.914564, "name": "Газпромнефть", "addr": "улица Немировича-Данченко, 136/1", "status": "yes", "fuels_now": "95", "conflict": null, "src": "seed"}, {"id": "364066501", "city": "Новосибирск", "lat": 54.9671651, "lon": 82.9261481, "name": "Энергия", "addr": "улица Ватутина, 103", "status": "no", "fuels_now": "", "conflict": null, "src": "seed"}, {"id": "364066506", "city": "Новосибирск", "lat": 54.9661855, "lon": 82.9278698, "name": "Газойл", "addr": "улица Ватутина, 105/1", "status": "no", "fuels_now": "", "conflict": null, "src": "seed"}, {"id": "1106229354", "city": "Новосибирск", "lat": 54.9722837, "lon": 82.9170441, "name": "Газпромнефть", "addr": "улица Ватутина, 89А", "status": "no", "fuels_now": "", "conflict": null, "src": "seed"}, {"id": "621147918", "city": "Новосибирск", "lat": 55.0400806, "lon": 82.8874622, "name": "Газпромнефть", "addr": "Владимировская улица, 22А", "status": "no", "fuels_now": "", "conflict": null, "src": "seed"}, {"id": "690341186", "city": "Новосибирск", "lat": 55.0250385, "lon": 82.9063198, "name": "Компани", "addr": "", "status": "no", "fuels_now": "", "conflict": null, "src": "seed"}, {"id": "663972036", "city": "Новосибирск", "lat": 55.0300805, "lon": 82.8950997, "name": "Прайм", "addr": "Фабричная улица, 24", "status": "no", "fuels_now": "", "conflict": null, "src": "seed"}, {"id": "1345219713", "city": "Новосибирск", "lat": 55.0220488, "lon": 82.9304609, "name": "Газпромнефть", "addr": "улица Свердлова, 18", "status": "yes", "fuels_now": "92,95,98,ДТ", "conflict": null, "src": "seed"}, {"id": "474973733", "city": "Новосибирск", "lat": 55.0386544, "lon": 82.9297499, "name": "Центр", "addr": "улица Семьи Шамшиных, 61", "status": "no", "fuels_now": "", "conflict": null, "src": "seed"}, {"id": "673452964", "city": "Новосибирск", "lat": 55.0615184, "lon": 82.9369564, "name": "Опти", "addr": "", "status": "no", "fuels_now": "", "conflict": null, "src": "seed"}, {"id": "419054535", "city": "Новосибирск", "lat": 54.9990457, "lon": 82.9602639, "name": "Газпромнефть", "addr": "Большевистская улица, 131/1", "status": "yes", "fuels_now": "", "conflict": null, "src": "seed"}, {"id": "474954443", "city": "Новосибирск", "lat": 54.9916557, "lon": 82.9792085, "name": "Лукойл", "addr": "", "status": "yes", "fuels_now": "", "conflict": null, "src": "seed"}, {"id": "410849648", "city": "Новосибирск", "lat": 54.9989062, "lon": 82.9777103, "name": "Газпромнефть", "addr": "улица Декабристов, 271", "status": "queue", "fuels_now": "92,95,98,100,ДТ", "conflict": null, "src": "seed"}, {"id": "5076609174", "city": "Новосибирск", "lat": 54.9914701, "lon": 82.9854323, "name": "АЗС", "addr": "", "status": "yes", "fuels_now": "", "conflict": null, "src": "seed"}, {"id": "5353612794", "city": "Новосибирск", "lat": 55.0254346, "lon": 82.9494984, "name": "Газпромнефть", "addr": "", "status": "yes", "fuels_now": "95", "conflict": null, "src": "seed"}, {"id": "6567033655", "city": "Новосибирск", "lat": 55.0255861, "lon": 82.9678863, "name": "АЗС", "addr": "", "status": null, "fuels_now": "", "conflict": null, "src": "seed"}, {"id": "677285894", "city": "Новосибирск", "lat": 55.0236691, "lon": 82.9747687, "name": "ГазОйл", "addr": "", "status": "no", "fuels_now": "", "conflict": null, "src": "seed"}, {"id": "634394929", "city": "Новосибирск", "lat": 55.0189638, "lon": 82.9892174, "name": "АЗС", "addr": "", "status": null, "fuels_now": "", "conflict": null, "src": "seed"}, {"id": "4413336442", "city": "Новосибирск", "lat": 55.0407387, "lon": 82.9620244, "name": "Лукойл", "addr": "", "status": "no", "fuels_now": "", "conflict": null, "src": "seed"}, {"id": "673880293", "city": "Новосибирск", "lat": 55.0578453, "lon": 82.9808926, "name": "Газпромнефть", "addr": "улица Бродского, 1/1", "status": "no", "fuels_now": "", "conflict": null, "src": "seed"}, {"id": "1119621488", "city": "Новосибирск", "lat": 55.0646425, "lon": 82.9698255, "name": "Прайм", "addr": "Трикотажная улица, 52/3", "status": "no", "fuels_now": "", "conflict": null, "src": "seed"}, {"id": "5217897246", "city": "Новосибирск", "lat": 55.0536053, "lon": 82.9942038, "name": "СибАвтоГаз", "addr": "", "status": "no", "fuels_now": "", "conflict": null, "src": "seed"}, {"id": "5693173143", "city": "Новосибирск", "lat": 55.055206, "lon": 82.9901996, "name": "АЗС", "addr": "Волочаевская улица, 54", "status": "no", "fuels_now": "", "conflict": null, "src": "seed"}, {"id": "634399062", "city": "Новосибирск", "lat": 55.0331977, "lon": 82.9965055, "name": "АЗС", "addr": "", "status": "queue", "fuels_now": "", "conflict": null, "src": "seed"}, {"id": "634401326", "city": "Новосибирск", "lat": 55.0455684, "lon": 83.0008931, "name": "АЗС", "addr": "", "status": "no", "fuels_now": "", "conflict": null, "src": "seed"}, {"id": "1345219699", "city": "Новосибирск", "lat": 55.0459734, "lon": 82.9959847, "name": "Газпромнефть", "addr": "улица Доватора, 11/1", "status": "queue", "fuels_now": "92,98,100,ДТ", "conflict": null, "src": "seed"}, {"id": "683101809", "city": "Новосибирск", "lat": 55.0526308, "lon": 82.9965118, "name": "Газпромнефть", "addr": "", "status": "queue", "fuels_now": "", "conflict": null, "src": "seed"}, {"id": "683030609", "city": "Новосибирск", "lat": 55.0427756, "lon": 83.0386842, "name": "Газпромнефть", "addr": "", "status": "queue", "fuels_now": "", "conflict": null, "src": "seed"}, {"id": "320715271", "city": "Новосибирск", "lat": 55.0694456, "lon": 82.8925849, "name": "Газпромнефть", "addr": "улица Жуковского, 124", "status": "queue", "fuels_now": "92,95,98,ДТ", "conflict": null, "src": "seed"}, {"id": "675772963", "city": "Новосибирск", "lat": 55.0833824, "lon": 82.8951765, "name": "Газпромнефть", "addr": "Мочищенское шоссе, 25", "status": "queue", "fuels_now": "92,95,ДТ", "conflict": null, "src": "seed"}, {"id": "634412018", "city": "Новосибирск", "lat": 55.0879087, "lon": 82.8940339, "name": "ГазОйл", "addr": "", "status": "no", "fuels_now": "", "conflict": null, "src": "seed"}, {"id": "675773011", "city": "Новосибирск", "lat": 55.0910314, "lon": 82.8932334, "name": "Nafta24", "addr": "", "status": null, "fuels_now": "", "conflict": null, "src": "seed"}, {"id": "9884665333", "city": "Новосибирск", "lat": 55.0906965, "lon": 82.8929763, "name": "Gaspro", "addr": "", "status": null, "fuels_now": "", "conflict": null, "src": "seed"}, {"id": "681809177", "city": "Новосибирск", "lat": 55.1034179, "lon": 82.9367995, "name": "Опти", "addr": "улица Фадеева, 68", "status": "no", "fuels_now": "", "conflict": null, "src": "seed"}, {"id": "4472673869", "city": "Новосибирск", "lat": 55.121045, "lon": 82.9224447, "name": "Газпром", "addr": "1-я Грузинская улица, 28/3", "status": "no", "fuels_now": "", "conflict": null, "src": "seed"}, {"id": "641816867", "city": "Новосибирск", "lat": 55.1203351, "lon": 82.924415, "name": "Сибавтогаз", "addr": "", "status": null, "fuels_now": "", "conflict": null, "src": "seed"}, {"id": "12581515789", "city": "Новосибирск", "lat": 55.126822, "lon": 82.936739, "name": "Опти", "addr": "", "status": "no", "fuels_now": "", "conflict": null, "src": "seed"}, {"id": "321571361", "city": "Новосибирск", "lat": 55.0913681, "lon": 82.9545909, "name": "Прайм", "addr": "Учительская улица, 64", "status": "no", "fuels_now": "", "conflict": null, "src": "seed"}, {"id": "634418616", "city": "Новосибирск", "lat": 55.0814737, "lon": 82.9788055, "name": "ГазОйл", "addr": "", "status": null, "fuels_now": "", "conflict": null, "src": "seed"}, {"id": "740367087", "city": "Новосибирск", "lat": 55.1049832, "lon": 82.9514823, "name": "Родники", "addr": "", "status": "no", "fuels_now": "", "conflict": null, "src": "seed"}, {"id": "634418617", "city": "Новосибирск", "lat": 55.1107747, "lon": 82.983342, "name": "АЗС", "addr": "", "status": "no", "fuels_now": "", "conflict": null, "src": "seed"}, {"id": "683031010", "city": "Новосибирск", "lat": 55.0718736, "lon": 83.0139895, "name": "Лукойл", "addr": "", "status": "no", "fuels_now": "", "conflict": null, "src": "seed"}, {"id": "613604810", "city": "Новосибирск", "lat": 55.1284763, "lon": 82.9424361, "name": "FNN", "addr": "Лётный микрорайон", "status": "yes", "fuels_now": "", "conflict": null, "src": "seed"}, {"id": "634408127", "city": "Новосибирск", "lat": 55.0480015, "lon": 83.066649, "name": "АГЗС", "addr": "", "status": "no", "fuels_now": "", "conflict": null, "src": "seed"}, {"id": "usr_em5ui1-_9Rc", "city": "Новосибирск", "lat": 55.047434995070134, "lon": 82.90126740932466, "name": "Прайм", "addr": "", "status": "no", "fuels_now": "", "conflict": null, "src": "seed"}, {"id": "usr_0XOGRKAQkgo", "city": "Новосибирск", "lat": 55.034169301452266, "lon": 83.00677043171267, "name": "Опти", "addr": "", "status": "no", "fuels_now": "", "conflict": null, "src": "seed"}, {"id": "usr_oPuR9a1NVjM", "city": "Новосибирск", "lat": 55.03144783947833, "lon": 83.00306117567222, "name": "Прайм", "addr": "", "status": "no", "fuels_now": "", "conflict": null, "src": "seed"}, {"id": "usr_mbRDBFt_NCk", "city": "Новосибирск", "lat": 55.042636829231725, "lon": 82.9839313030243, "name": "Горизонт", "addr": "", "status": "no", "fuels_now": "", "conflict": null, "src": "seed"}, {"id": "10093904541", "city": "Новосибирск", "lat": 55.0498014, "lon": 82.9334442, "name": "Teboil", "addr": "ул Писарева, 76", "status": "queue", "fuels_now": "92,95", "conflict": null, "src": "seed"}, {"id": "10188028712", "city": "Новосибирск", "lat": 55.0494533, "lon": 82.9233476, "name": "АЗС", "addr": "ул Писарева, 38", "status": "queue", "fuels_now": "", "conflict": null, "src": "seed"}, {"id": "10230879650", "city": "Новосибирск", "lat": 55.080839, "lon": 83.037004, "name": "Опти", "addr": "ул Ростовская, 60", "status": "no", "fuels_now": "", "conflict": null, "src": "seed"}, {"id": "10230879652", "city": "Новосибирск", "lat": 54.8431, "lon": 82.9484, "name": "Опти", "addr": "ул Софийская, 18А/1", "status": "no", "fuels_now": "", "conflict": null, "src": "seed"}, {"id": "1118309363", "city": "Новосибирск", "lat": 54.9972404, "lon": 82.7919244, "name": "татнефть", "addr": "ул Станционная, 80А", "status": "no", "fuels_now": "", "conflict": null, "src": "seed"}, {"id": "1118313260", "city": "Новосибирск", "lat": 55.0544011, "lon": 82.9397367, "name": "Опти", "addr": "ул Ипподромская, 40", "status": "no", "fuels_now": "", "conflict": null, "src": "seed"}, {"id": "1118314157", "city": "Новосибирск", "lat": 55.0662373, "lon": 82.932787, "name": "Teboil", "addr": "ул Богдана Хмельницкого, 1/2", "status": "no", "fuels_now": "", "conflict": null, "src": "seed"}, {"id": "1118355955", "city": "Новосибирск", "lat": 54.860116, "lon": 82.9674629, "name": "Газпромнефть", "addr": "ул Молодости, 23", "status": "queue", "fuels_now": "92,95,98,100,ДТ", "conflict": null, "src": "seed"}, {"id": "1118360106", "city": "Новосибирск", "lat": 54.8559074, "lon": 82.9583616, "name": "Норд-Нск", "addr": "ул Варшавская, 1А", "status": null, "fuels_now": "", "conflict": null, "src": "seed"}, {"id": "1118381718", "city": "Новосибирск", "lat": 55.0419553, "lon": 83.0342626, "name": "Лукойл", "addr": "Гусинобродское шоссе, 41", "status": "no", "fuels_now": "", "conflict": null, "src": "seed"}, {"id": "1118486507", "city": "Новосибирск", "lat": 54.8789072, "lon": 82.757103, "name": "Гарантия", "addr": "ул Мелиораторов, 10А", "status": "yes", "fuels_now": "", "conflict": null, "src": "seed"}, {"id": "1119622309", "city": "Новосибирск", "lat": 55.062628, "lon": 82.8913661, "name": "Опти", "addr": "ул Жуковского, 100А", "status": "no", "fuels_now": "", "conflict": null, "src": "seed"}, {"id": "1119628786", "city": "Новосибирск", "lat": 54.9426876, "lon": 82.8802914, "name": "ГазОйл", "addr": "ул Петухова, 8А", "status": "no", "fuels_now": "", "conflict": null, "src": "seed"}, {"id": "1241081316", "city": "Новосибирск", "lat": 54.9563201, "lon": 82.850742, "name": "Опти", "addr": "ул Тульская, 435/1", "status": "no", "fuels_now": "", "conflict": null, "src": "seed"}, {"id": "1264872037", "city": "Новосибирск", "lat": 55.1034219, "lon": 82.9560634, "name": "АЗС", "addr": "ул Мясниковой, 3", "status": null, "fuels_now": "", "conflict": null, "src": "seed"}, {"id": "12995793029", "city": "Новосибирск", "lat": 55.01149, "lon": 82.81616, "name": "Газпромнефть", "addr": "ул 2-я Станционная, 27", "status": "no", "fuels_now": "", "conflict": null, "src": "seed"}, {"id": "12995793042", "city": "Новосибирск", "lat": 54.9961969, "lon": 82.9660678, "name": "Газпромнефть", "addr": "ул Большевистская, 50", "status": "no", "fuels_now": "", "conflict": null, "src": "seed"}, {"id": "12995793052", "city": "Новосибирск", "lat": 55.0504915, "lon": 82.8996755, "name": "Газпромнефть", "addr": "ул Нарымская, 100", "status": "no", "fuels_now": "", "conflict": null, "src": "seed"}, {"id": "12995793070", "city": "Новосибирск", "lat": 55.0268882, "lon": 82.8990116, "name": "Газпромнефть", "addr": "ул Фабричная, 18/2", "status": "queue", "fuels_now": "92,95,98,ДТ", "conflict": null, "src": "seed"}, {"id": "12995793071", "city": "Новосибирск", "lat": 55.0034154, "lon": 82.8695342, "name": "Газпромнефть", "addr": "пр-д Энергетиков, 4", "status": "queue", "fuels_now": "92,95,98,100,ДТ", "conflict": null, "src": "seed"}, {"id": "12995793144", "city": "Новосибирск", "lat": 54.9713066, "lon": 83.0403489, "name": "Энергия", "addr": "Бердское шоссе, 1а", "status": "no", "fuels_now": "", "conflict": null, "src": "seed"}, {"id": "12995793288", "city": "Новосибирск", "lat": 55.0100677, "lon": 82.8762004, "name": "Газпромнефть", "addr": "пр-д Энергетиков, 1", "status": "no", "fuels_now": "", "conflict": null, "src": "seed"}, {"id": "13151015853", "city": "Новосибирск", "lat": 54.997667, "lon": 82.756296, "name": "Teboil", "addr": "ул Станционная, 88", "status": null, "fuels_now": "", "conflict": null, "src": "seed"}, {"id": "13285799037", "city": "Новосибирск", "lat": 55.0158558, "lon": 82.9223572, "name": "Энергия", "addr": "ул Фабричная, 4А", "status": "no", "fuels_now": "", "conflict": null, "src": "seed"}, {"id": "13285799038", "city": "Новосибирск", "lat": 54.9566459, "lon": 82.9544961, "name": "Энергия", "addr": "ул Тюменская, 14/1", "status": "no", "fuels_now": "", "conflict": null, "src": "seed"}, {"id": "13962174850", "city": "Новосибирск", "lat": 55.0418944, "lon": 82.9629147, "name": "Татнефть", "addr": "ул Фрунзе, 75", "status": "yes", "fuels_now": "100", "conflict": null, "src": "seed"}, {"id": "1445523826", "city": "Новосибирск", "lat": 54.9982239, "lon": 82.7811121, "name": "Хорос", "addr": "ул Станционная, 84", "status": null, "fuels_now": "", "conflict": null, "src": "seed"}, {"id": "1445523834", "city": "Новосибирск", "lat": 54.9959042, "lon": 82.8308583, "name": "АЗС", "addr": "ул Станционная, 59Б", "status": "no", "fuels_now": "", "conflict": null, "src": "seed"}, {"id": "1445523835", "city": "Новосибирск", "lat": 54.9975875, "lon": 82.7562772, "name": "Nafta24", "addr": "ул Станционная, 88", "status": null, "fuels_now": "", "conflict": null, "src": "seed"}, {"id": "1445523837", "city": "Новосибирск", "lat": 54.9977275, "lon": 82.8252217, "name": "Nafta24", "addr": "ул Станционная, 64", "status": "no", "fuels_now": "", "conflict": null, "src": "seed"}, {"id": "1518009393", "city": "Новосибирск", "lat": 55.0912905, "lon": 82.9525227, "name": "АГЗС ГАЗОЙЛ", "addr": "ул Учительская, 65", "status": "no", "fuels_now": "", "conflict": null, "src": "seed"}, {"id": "2013516373", "city": "Новосибирск", "lat": 55.1178575, "lon": 82.9151046, "name": "Газпромнефть", "addr": "ул Николая Шипилова, 2", "status": "queue", "fuels_now": "", "conflict": null, "src": "seed"}, {"id": "2206383746", "city": "Новосибирск", "lat": 55.0796873, "lon": 82.9808627, "name": "Опти", "addr": "ул Писемского, 10", "status": "no", "fuels_now": "", "conflict": null, "src": "seed"}, {"id": "280108526", "city": "Новосибирск", "lat": 55.0723217, "lon": 82.9099616, "name": "Топаз", "addr": "Красный пр-кт, 222", "status": "no", "fuels_now": "", "conflict": null, "src": "seed"}, {"id": "286759696", "city": "Новосибирск", "lat": 55.0377956, "lon": 82.9384637, "name": "Газпромнефть", "addr": "ул Фрунзе, 122", "status": "queue", "fuels_now": "92,95,98,100,ДТ", "conflict": null, "src": "seed"}, {"id": "3038469908", "city": "Новосибирск", "lat": 55.0341451, "lon": 82.9424588, "name": "ГазОйл", "addr": "пер Ядринцевский подъем, 1", "status": "no", "fuels_now": "", "conflict": null, "src": "seed"}, {"id": "306101913", "city": "Новосибирск", "lat": 54.9972678, "lon": 82.8488228, "name": "Газпромнефть", "addr": "ул Станционная, 36/1", "status": "no", "fuels_now": "", "conflict": null, "src": "seed"}, {"id": "3710986596", "city": "Новосибирск", "lat": 54.9818959, "lon": 83.0057508, "name": "Новосибирск", "addr": "ул Большевистская, 278", "status": "yes", "fuels_now": "", "conflict": null, "src": "seed"}, {"id": "393928716", "city": "Новосибирск", "lat": 54.9732875, "lon": 82.9040373, "name": "Газпромнефть", "addr": "ул Немировича-Данченко, 118/2", "status": "no", "fuels_now": "", "conflict": null, "src": "seed"}, {"id": "3963848173", "city": "Новосибирск", "lat": 55.1029535, "lon": 82.9563862, "name": "АЗС", "addr": "ул Мясниковой, 3", "status": null, "fuels_now": "", "conflict": null, "src": "seed"}, {"id": "3986701561", "city": "Новосибирск", "lat": 55.0200745, "lon": 82.9355784, "name": "Татнефть", "addr": "ул Кирова, 40", "status": "yes", "fuels_now": "92,98,100,ДТ", "conflict": null, "src": "seed"}, {"id": "usr_iKknQaj26vw", "city": "Краснодар", "lat": 45.03473499691122, "lon": 38.92380237579345, "name": "Лукойл", "addr": "", "status": "no", "fuels_now": "", "conflict": null, "src": "seed"}, {"id": "usr_O6bDwE-V98Q", "city": "Краснодар", "lat": 45.04155413267522, "lon": 39.02659043669701, "name": "Лукойл", "addr": "", "status": "no", "fuels_now": "", "conflict": null, "src": "seed"}, {"id": "usr_C8pzQSLqECA", "city": "Краснодар", "lat": 45.11132435153792, "lon": 39.01174505038813, "name": "Газпром", "addr": "", "status": "no", "fuels_now": "", "conflict": null, "src": "seed"}, {"id": "usr_fquQVYiEEuY", "city": "Краснодар", "lat": 45.097967885282785, "lon": 38.99856448173525, "name": "Лукойл", "addr": "", "status": "no", "fuels_now": "", "conflict": null, "src": "seed"}, {"id": "usr_nUS8yQtVVUY", "city": "Краснодар", "lat": 45.036022403382745, "lon": 39.05906559034013, "name": "Роснефть", "addr": "", "status": "no", "fuels_now": "", "conflict": null, "src": "seed"}, {"id": "usr_FbdHFj4x3Ws", "city": "Краснодар", "lat": 45.0821072579691, "lon": 39.01448030938934, "name": "Тебойл", "addr": "", "status": "no", "fuels_now": "", "conflict": null, "src": "seed"}, {"id": "usr_iTdI5qiI0wc", "city": "Краснодар", "lat": 45.0957084280294, "lon": 38.97797942161561, "name": "Роснефть", "addr": "", "status": "queue", "fuels_now": "92,95,98,100,ДТ", "conflict": null, "src": "seed"}, {"id": "usr_Xd-zMiNE5sI", "city": "Краснодар", "lat": 45.097263550098674, "lon": 39.094519615173326, "name": "Газпромнефть", "addr": "", "status": "no", "fuels_now": "", "conflict": null, "src": "seed"}, {"id": "usr_ZfVezJzW8mI", "city": "Краснодар", "lat": 45.07517167027069, "lon": 39.00131464004517, "name": "Тебойл", "addr": "", "status": "queue", "fuels_now": "92,95,98,ДТ", "conflict": null, "src": "seed"}, {"id": "usr_LkiUyGweCPA", "city": "Краснодар", "lat": 45.098571, "lon": 38.911436, "name": "Газпромнефть", "addr": "", "status": "no", "fuels_now": "", "conflict": null, "src": "seed"}, {"id": "usr_VlOBRFPDNfM", "city": "Краснодар", "lat": 45.072658751523846, "lon": 38.90175640583039, "name": "Тебоил", "addr": "", "status": "queue", "fuels_now": "92,ДТ", "conflict": null, "src": "seed"}, {"id": "usr_ZVHrHIu6s9E", "city": "Краснодар", "lat": 45.121406055951816, "lon": 39.00208711624146, "name": "Лукойл", "addr": "", "status": "no", "fuels_now": "", "conflict": null, "src": "seed"}, {"id": "usr_cOsnRSEGXLM", "city": "Краснодар", "lat": 45.09119264688961, "lon": 39.013704324069856, "name": "Газпром", "addr": "", "status": "no", "fuels_now": "", "conflict": null, "src": "seed"}, {"id": "usr_tau-2imsFHo", "city": "Краснодар", "lat": 45.093643377159786, "lon": 39.013145833577646, "name": "ЮНК", "addr": "", "status": "yes", "fuels_now": "", "conflict": null, "src": "seed"}, {"id": "usr_cViaD9vufMo", "city": "Краснодар", "lat": 45.09575576394458, "lon": 38.979347348213196, "name": "Лукойл", "addr": "", "status": "queue", "fuels_now": "92", "conflict": null, "src": "seed"}, {"id": "usr_CD2mFw9yZFY", "city": "Краснодар", "lat": 45.01216448791366, "lon": 39.06860813497133, "name": "Газпром", "addr": "", "status": "queue", "fuels_now": "92,95,ДТ", "conflict": null, "src": "seed"}, {"id": "usr_gaTTmoCKL2c", "city": "Краснодар", "lat": 45.00509752642885, "lon": 39.06811773768823, "name": "Газпром", "addr": "", "status": "no", "fuels_now": "", "conflict": null, "src": "seed"}, {"id": "usr_ARbAelBSSOE", "city": "Краснодар", "lat": 45.08858948561753, "lon": 39.0214392985057, "name": "Газпромнефть", "addr": "", "status": "queue", "fuels_now": "", "conflict": null, "src": "seed"}, {"id": "usr_AE2wBzsou5s", "city": "Краснодар", "lat": 45.0718459805796, "lon": 38.99524739254369, "name": "Уфимнефть", "addr": "", "status": "no", "fuels_now": "", "conflict": null, "src": "seed"}, {"id": "usr_67OBZioJhN8", "city": "Краснодар", "lat": 45.06558043832064, "lon": 38.98553532528958, "name": "Сити Ойл", "addr": "", "status": "no", "fuels_now": "", "conflict": null, "src": "seed"}, {"id": "usr_S1LP3cOiG_4", "city": "Краснодар", "lat": 45.028890452484625, "lon": 39.01615397102226, "name": "Газпромнефть", "addr": "", "status": "no", "fuels_now": "", "conflict": null, "src": "seed"}, {"id": "usr_KbmZNmfiDcU", "city": "Краснодар", "lat": 45.006547264339574, "lon": 39.10388450292225, "name": "Роснефть", "addr": "", "status": "no", "fuels_now": "", "conflict": null, "src": "seed"}, {"id": "usr_t7tGK6yL4wI", "city": "Краснодар", "lat": 45.03818904902409, "lon": 38.91479194164276, "name": "Petrol Office", "addr": "", "status": "no", "fuels_now": "", "conflict": null, "src": "seed"}, {"id": "usr_gNgNgO7AYl8", "city": "Краснодар", "lat": 45.11964321818532, "lon": 39.01082432280418, "name": "Лукойл", "addr": "", "status": "no", "fuels_now": "", "conflict": null, "src": "seed"}, {"id": "usr_WmeXvuEz600", "city": "Краснодар", "lat": 45.0270240948385, "lon": 38.944830894415645, "name": "Лукойл", "addr": "", "status": "queue", "fuels_now": "92,95", "conflict": null, "src": "seed"}, {"id": "usr_xp6VYK8Qc0Y", "city": "Краснодар", "lat": 45.042036, "lon": 39.102655, "name": "Лукойл", "addr": "", "status": "no", "fuels_now": "", "conflict": null, "src": "seed"}, {"id": "usr_FHpJncf3iS0", "city": "Краснодар", "lat": 45.0041130820462, "lon": 39.10623696436801, "name": "Газон+", "addr": "", "status": "no", "fuels_now": "", "conflict": null, "src": "seed"}, {"id": "usr_8zvkGO7mfto", "city": "Краснодар", "lat": 45.053560037074, "lon": 38.909799456596396, "name": "Газпрайм", "addr": "", "status": "no", "fuels_now": "", "conflict": null, "src": "seed"}, {"id": "usr_Y1MkbG5XtOc", "city": "Краснодар", "lat": 45.04110780376128, "lon": 39.09858092665673, "name": "VP", "addr": "", "status": "no", "fuels_now": "", "conflict": null, "src": "seed"}, {"id": "usr_yeaykHFIG3g", "city": "Краснодар", "lat": 45.05894446517879, "lon": 38.9635088146898, "name": "PNB", "addr": "", "status": "no", "fuels_now": "", "conflict": null, "src": "seed"}, {"id": "usr_AYDUUI99srg", "city": "Краснодар", "lat": 45.12552795747562, "lon": 39.009117186069496, "name": "RosOil", "addr": "", "status": "no", "fuels_now": "", "conflict": null, "src": "seed"}, {"id": "usr_iBwQNKE5ZlE", "city": "Краснодар", "lat": 45.1273913446656, "lon": 39.013583014061425, "name": "Газпром", "addr": "", "status": "no", "fuels_now": "", "conflict": null, "src": "seed"}, {"id": "11032162516", "city": "Краснодар", "lat": 45.1267051, "lon": 38.9072509, "name": "АЗС", "addr": "Звездный пер, 1/3", "status": "no", "fuels_now": "", "conflict": null, "src": "seed"}, {"id": "3048710796", "city": "Краснодар", "lat": 45.0073695, "lon": 38.9318607, "name": "Лукойл", "addr": "Тургеневское шоссе, 32", "status": "no", "fuels_now": "", "conflict": null, "src": "seed"}, {"id": "1116762321", "city": "Краснодар", "lat": 45.0022339, "lon": 38.9634664, "name": "Роснефть", "addr": "улица Захарова, 5", "status": "no", "fuels_now": "", "conflict": null, "src": "seed"}, {"id": "1980859821", "city": "Краснодар", "lat": 45.0071491, "lon": 38.9680675, "name": "Лукойл", "addr": "улица Захарова, 5А", "status": "no", "fuels_now": "", "conflict": null, "src": "seed"}, {"id": "1980661172", "city": "Краснодар", "lat": 45.0133038, "lon": 38.9819866, "name": "Лукойл", "addr": "Ставропольская улица, 2/1", "status": "queue", "fuels_now": "92,95,98,100", "conflict": null, "src": "seed"}, {"id": "3823180375", "city": "Краснодар", "lat": 45.0252331, "lon": 38.9929664, "name": "Газпромнефть", "addr": "Переходная улица, 3", "status": "no", "fuels_now": "", "conflict": null, "src": "seed"}, {"id": "1984205576", "city": "Краснодар", "lat": 45.0230522, "lon": 38.9970861, "name": "Роснефть", "addr": "улица Вишняковой, 146", "status": "no", "fuels_now": "", "conflict": null, "src": "seed"}, {"id": "1402172096", "city": "Краснодар", "lat": 45.0368914, "lon": 38.9554, "name": "Роснефть", "addr": "улица Кубанская Набережная, 47/1", "status": "queue", "fuels_now": "92,95,100,ДТ", "conflict": null, "src": "seed"}, {"id": "1999633012", "city": "Краснодар", "lat": 45.0487828, "lon": 38.9626599, "name": "Роснефть", "addr": "улица Котовского, 76/1", "status": "no", "fuels_now": "", "conflict": null, "src": "seed"}, {"id": "471807116", "city": "Краснодар", "lat": 45.0447008, "lon": 38.9820828, "name": "Лукойл", "addr": "Путевая улица, 3/1", "status": "no", "fuels_now": "", "conflict": null, "src": "seed"}, {"id": "13945142544", "city": "Краснодар", "lat": 45.0624624, "lon": 38.9180181, "name": "Роснефть", "addr": "улица Академика Лукьяненко, 6", "status": "no", "fuels_now": "", "conflict": null, "src": "seed"}, {"id": "725142999", "city": "Краснодар", "lat": 45.068202, "lon": 38.9099225, "name": "Опти", "addr": "", "status": "no", "fuels_now": "", "conflict": null, "src": "seed"}, {"id": "806850361", "city": "Краснодар", "lat": 45.0621257, "lon": 38.966694, "name": "Rusoil", "addr": "", "status": "no", "fuels_now": "", "conflict": null, "src": "seed"}, {"id": "1966606100", "city": "Краснодар", "lat": 45.0600208, "lon": 38.9617549, "name": "Лукойл", "addr": "улица Тургенева, 138/5", "status": "no", "fuels_now": "", "conflict": null, "src": "seed"}, {"id": "1979232188", "city": "Краснодар", "lat": 45.0635426, "lon": 38.9852588, "name": "Лукойл", "addr": "Ростовское шоссе, 3", "status": "no", "fuels_now": "", "conflict": null, "src": "seed"}, {"id": "3191138443", "city": "Краснодар", "lat": 45.0702869, "lon": 38.9872042, "name": "Татнефть", "addr": "Ростовское шоссе, 12/13", "status": "queue", "fuels_now": "92,95,ДТ", "conflict": "no", "src": "seed"}, {"id": "2512754218", "city": "Краснодар", "lat": 45.0805208, "lon": 38.9751656, "name": "Газпром", "addr": "улица Дзержинского, 64", "status": "no", "fuels_now": "", "conflict": null, "src": "seed"}, {"id": "2512754226", "city": "Краснодар", "lat": 45.0832654, "lon": 38.9759661, "name": "Уфимнефть", "addr": "улица Дзержинского, 68", "status": "no", "fuels_now": "", "conflict": null, "src": "seed"}, {"id": "452244243", "city": "Краснодар", "lat": 45.0916513, "lon": 38.9923262, "name": "Роснефть", "addr": "", "status": "no", "fuels_now": "", "conflict": "queue", "src": "seed"}, {"id": "638390026", "city": "Краснодар", "lat": 45.0793313, "lon": 39.0006889, "name": "Роснефть", "addr": "", "status": "queue", "fuels_now": "92,95,98,100,ДТ", "conflict": null, "src": "seed"}, {"id": "1977815196", "city": "Краснодар", "lat": 45.1023245, "lon": 38.9814336, "name": "Rusoil", "addr": "улица Дзержинского, 227", "status": "no", "fuels_now": "", "conflict": null, "src": "seed"}, {"id": "6327755789", "city": "Краснодар", "lat": 45.1075695, "lon": 38.938104, "name": "Газпромнефть", "addr": "", "status": "no", "fuels_now": "", "conflict": null, "src": "seed"}, {"id": "1977826223", "city": "Краснодар", "lat": 45.1164419, "lon": 38.9859013, "name": "Роснефть", "addr": "улица Дзержинского, 108", "status": "no", "fuels_now": "", "conflict": null, "src": "seed"}, {"id": "1979215679", "city": "Краснодар", "lat": 45.1094262, "lon": 38.9955629, "name": "RusOil", "addr": "Ростовское шоссе, 32", "status": "no", "fuels_now": "", "conflict": null, "src": "seed"}, {"id": "6327755787", "city": "Краснодар", "lat": 45.1193948, "lon": 38.985058, "name": "Роснефть", "addr": "", "status": "no", "fuels_now": "", "conflict": null, "src": "seed"}, {"id": "1978980336", "city": "Краснодар", "lat": 45.1246854, "lon": 38.9879842, "name": "Лукойл", "addr": "улица Дзержинского, 251", "status": "no", "fuels_now": "", "conflict": null, "src": "seed"}, {"id": "13226771261", "city": "Краснодар", "lat": 45.1207738, "lon": 38.9988982, "name": "Роснефть", "addr": "Ростовское шоссе, 25/1", "status": "no", "fuels_now": "", "conflict": null, "src": "seed"}, {"id": "13226771271", "city": "Краснодар", "lat": 45.1280947, "lon": 38.9973472, "name": "PNB", "addr": "1-я Дорожная улица, 2", "status": "no", "fuels_now": "", "conflict": null, "src": "seed"}, {"id": "13226771272", "city": "Краснодар", "lat": 45.1307342, "lon": 38.9970895, "name": "Газпромнефть", "addr": "1-я Дорожная улица, 33", "status": "queue", "fuels_now": "92", "conflict": null, "src": "seed"}, {"id": "510146462", "city": "Краснодар", "lat": 45.0237553, "lon": 39.009479, "name": "PNB", "addr": "улица Шевченко, 148", "status": "no", "fuels_now": "", "conflict": null, "src": "seed"}, {"id": "297719645", "city": "Краснодар", "lat": 45.0198613, "lon": 39.0242254, "name": "Лукойл", "addr": "улица Степана Разина, 57", "status": "no", "fuels_now": "", "conflict": null, "src": "seed"}, {"id": "1989406581", "city": "Краснодар", "lat": 45.0143465, "lon": 39.046543, "name": "Газпром", "addr": "Старокубанская улица, 98", "status": "no", "fuels_now": "", "conflict": null, "src": "seed"}, {"id": "1965108115", "city": "Краснодар", "lat": 45.0165901, "lon": 39.0541191, "name": "Роснефть", "addr": "улица Селезнёва, 197/5", "status": "no", "fuels_now": "", "conflict": null, "src": "seed"}, {"id": "2332703041", "city": "Краснодар", "lat": 45.0177787, "lon": 39.0534116, "name": "Газпромнефть", "addr": "улица Селезнёва, 197/2", "status": "queue", "fuels_now": "92,95,98,100,ДТ", "conflict": null, "src": "seed"}, {"id": "1979264104", "city": "Краснодар", "lat": 45.0224594, "lon": 39.0490316, "name": "Лукойл", "addr": "Старокубанская улица, 131", "status": "queue", "fuels_now": "92,95,98,100,ДТ", "conflict": null, "src": "seed"}, {"id": "2496973351", "city": "Краснодар", "lat": 45.0210134, "lon": 39.051173, "name": "Rusoil", "addr": "улица Селезнёва, 193/2", "status": "no", "fuels_now": "", "conflict": null, "src": "seed"}, {"id": "2010549128", "city": "Краснодар", "lat": 45.0225537, "lon": 39.0540558, "name": "Teboil", "addr": "Сормовская улица, 2/1", "status": "no", "fuels_now": "", "conflict": null, "src": "seed"}, {"id": "3215314950", "city": "Краснодар", "lat": 45.0281198, "lon": 39.0150763, "name": "Лукойл", "addr": "Новороссийская улица, 104/1", "status": "no", "fuels_now": "", "conflict": null, "src": "seed"}, {"id": "2077120925", "city": "Краснодар", "lat": 45.0324687, "lon": 39.0241007, "name": "Лукойл", "addr": "Новороссийская улица, 3", "status": "no", "fuels_now": "", "conflict": null, "src": "seed"}, {"id": "13019721498", "city": "Краснодар", "lat": 45.0313209, "lon": 39.0286423, "name": "Газпромнефть", "addr": "Ялтинская улица, 30", "status": "queue", "fuels_now": "92,95,98,100,ДТ", "conflict": null, "src": "seed"}, {"id": "2678529351", "city": "Краснодар", "lat": 45.0369364, "lon": 39.0283216, "name": "АГНКС метан", "addr": "Восточно-Кругликовская улица, 4", "status": "no", "fuels_now": "", "conflict": null, "src": "seed"}, {"id": "7829807792", "city": "Краснодар", "lat": 45.0378539, "lon": 39.028598, "name": "Газпромнефть", "addr": "", "status": "no", "fuels_now": "", "conflict": null, "src": "seed"}, {"id": "4575378690", "city": "Краснодар", "lat": 45.0355743, "lon": 39.0339064, "name": "Teboil", "addr": "", "status": "no", "fuels_now": "", "conflict": null, "src": "seed"}, {"id": "3192851229", "city": "Краснодар", "lat": 45.0296809, "lon": 39.0575872, "name": "Газпром", "addr": "улица Лизы Чайкиной, 6/1", "status": "no", "fuels_now": "", "conflict": null, "src": "seed"}, {"id": "3192851230", "city": "Краснодар", "lat": 45.0300849, "lon": 39.0572759, "name": "Лукойл", "addr": "улица Лизы Чайкиной, 6А", "status": "no", "fuels_now": "", "conflict": null, "src": "seed"}, {"id": "1984318138", "city": "Краснодар", "lat": 45.0130859, "lon": 39.0651629, "name": "СитиОйл", "addr": "улица Мачуги, 9", "status": "no", "fuels_now": "", "conflict": null, "src": "seed"}, {"id": "6000377787", "city": "Краснодар", "lat": 45.0233665, "lon": 39.0606424, "name": "Лукойл", "addr": "Сормовская улица, 4/1", "status": "no", "fuels_now": "", "conflict": null, "src": "seed"}, {"id": "2261343234", "city": "Краснодар", "lat": 45.0149858, "lon": 39.0968679, "name": "АГЗС, газ пропан", "addr": "Бородинская улица, 148", "status": "no", "fuels_now": "", "conflict": null, "src": "seed"}, {"id": "13944707011", "city": "Краснодар", "lat": 45.0146864, "lon": 39.1047503, "name": "Газпром", "addr": "улица Крупской, 8/2", "status": "no", "fuels_now": "", "conflict": null, "src": "seed"}, {"id": "13943932460", "city": "Краснодар", "lat": 45.0327563, "lon": 39.0758222, "name": "АЗС", "addr": "улица Дежнёва, 40/3", "status": "no", "fuels_now": "", "conflict": null, "src": "seed"}, {"id": "530182118", "city": "Краснодар", "lat": 45.0326736, "lon": 39.0979018, "name": "АЗС", "addr": "", "status": "no", "fuels_now": "", "conflict": null, "src": "seed"}, {"id": "530185515", "city": "Краснодар", "lat": 45.0372402, "lon": 39.1042726, "name": "Ситиойл", "addr": "Сормовская улица, 200", "status": "no", "fuels_now": "", "conflict": null, "src": "seed"}, {"id": "9001256224", "city": "Краснодар", "lat": 45.0412796, "lon": 39.0960501, "name": "АЗС", "addr": "", "status": "no", "fuels_now": "", "conflict": null, "src": "seed"}, {"id": "2001028653", "city": "Краснодар", "lat": 45.0429068, "lon": 39.1082557, "name": "Газпромнефть", "addr": "Уральская улица, 194/1", "status": "queue", "fuels_now": "", "conflict": null, "src": "seed"}, {"id": "910828882", "city": "Краснодар", "lat": 45.0717533, "lon": 39.0146922, "name": "Лукойл", "addr": "Российская улица, 101", "status": "no", "fuels_now": "", "conflict": null, "src": "seed"}, {"id": "4638013632", "city": "Краснодар", "lat": 45.0073927, "lon": 39.1168696, "name": "АЗС", "addr": "", "status": "no", "fuels_now": "", "conflict": null, "src": "seed"}, {"id": "4730208803", "city": "Краснодар", "lat": 45.0435259, "lon": 39.1163288, "name": "Сивнефть", "addr": "Уральская улица, 212", "status": "no", "fuels_now": "", "conflict": null, "src": "seed"}, {"id": "452244247", "city": "Краснодар", "lat": 45.1338199, "lon": 39.0244543, "name": "Уфимнефть", "addr": "", "status": "no", "fuels_now": "", "conflict": null, "src": "seed"}, {"id": "11871542973", "city": "Краснодар", "lat": 45.0331127, "lon": 39.0763461, "name": "Роснефть", "addr": "ул им. Дежнёва, 40/2", "status": "no", "fuels_now": "", "conflict": null, "src": "seed"}, {"id": "11872195339", "city": "Краснодар", "lat": 45.0702389, "lon": 38.905319, "name": "Газпром", "addr": "ул Красных Партизан, 59", "status": "no", "fuels_now": "", "conflict": null, "src": "seed"}, {"id": "11883315215", "city": "Краснодар", "lat": 45.0117088, "lon": 39.0659411, "name": "ГНК", "addr": "ул им. Мачуги В.Н., 2/2", "status": "no", "fuels_now": "", "conflict": null, "src": "seed"}, {"id": "11901826117", "city": "Краснодар", "lat": 45.0315588, "lon": 39.0413614, "name": "Газпромнефть", "addr": "ул Уральская, 96/3", "status": "queue", "fuels_now": "95", "conflict": null, "src": "seed"}, {"id": "1233361842", "city": "Краснодар", "lat": 45.0375257, "lon": 39.0863753, "name": "Ростнефть", "addr": "ул Уральская, 144А", "status": "no", "fuels_now": "", "conflict": null, "src": "seed"}, {"id": "1301568400", "city": "Краснодар", "lat": 45.0947675, "lon": 38.9923926, "name": "Газ", "addr": "ул Ростовское Шоссе, 28", "status": "no", "fuels_now": "", "conflict": null, "src": "seed"}, {"id": "13321535017", "city": "Краснодар", "lat": 45.0361091, "lon": 39.0728004, "name": "АЗС", "addr": "ул Уральская, 134/2", "status": "no", "fuels_now": "", "conflict": null, "src": "seed"}, {"id": "13321535053", "city": "Краснодар", "lat": 45.0386714, "lon": 39.0923565, "name": "RusOil", "addr": "ул Уральская, 148/6", "status": "no", "fuels_now": "", "conflict": null, "src": "seed"}, {"id": "1965108129", "city": "Краснодар", "lat": 45.0180473, "lon": 39.0531389, "name": "Пропан", "addr": "ул им. Селезнева, 197/1", "status": "no", "fuels_now": "", "conflict": null, "src": "seed"}, {"id": "1984151658", "city": "Краснодар", "lat": 45.0144, "lon": 38.97758, "name": "Газпромнефть", "addr": "ул им. Суворова, 2/1", "status": "queue", "fuels_now": "92,95,98,100,ДТ", "conflict": "no", "src": "seed"}, {"id": "2954162357", "city": "Краснодар", "lat": 45.0845206, "lon": 38.9009984, "name": "Роснефть", "addr": "ул Красных Партизан, 1/10", "status": "no", "fuels_now": "", "conflict": null, "src": "seed"}, {"id": "3430025117", "city": "Краснодар", "lat": 45.0467643, "lon": 38.9742388, "name": "Rusoil", "addr": "ул им. Бабушкина, 250А", "status": "no", "fuels_now": "", "conflict": null, "src": "seed"}, {"id": "344120474", "city": "Краснодар", "lat": 45.0217882, "lon": 38.9843633, "name": "Кубанский топливный союз", "addr": "ул им. Суворова, 54", "status": "no", "fuels_now": "", "conflict": null, "src": "seed"}, {"id": "usr_MPhyIKAgFSI", "city": "Екатеринбург", "lat": 56.87784134556964, "lon": 60.62248885631562, "name": "Газпромнефть", "addr": "", "status": "no", "fuels_now": "", "conflict": null, "src": "seed"}, {"id": "usr_2DpEm9j7aAU", "city": "Екатеринбург", "lat": 56.87517815791458, "lon": 60.55466099596403, "name": "Башнефть", "addr": "", "status": "no", "fuels_now": "", "conflict": null, "src": "seed"}, {"id": "usr_w1kQZ3CpeRo", "city": "Екатеринбург", "lat": 56.91173034290582, "lon": 60.51005957625103, "name": "Газпромнефть", "addr": "", "status": "yes", "fuels_now": "92,95,98,100,ДТ", "conflict": null, "src": "seed"}, {"id": "usr_mS6TO4MZnBw", "city": "Екатеринбург", "lat": 56.85281311515565, "lon": 60.63779387857534, "name": "Башнефть", "addr": "", "status": "no", "fuels_now": "", "conflict": null, "src": "seed"}, {"id": "usr_7EUVoS11fl4", "city": "Екатеринбург", "lat": 56.804012268933775, "lon": 60.56476593017578, "name": "Варта", "addr": "", "status": "yes", "fuels_now": "", "conflict": null, "src": "seed"}, {"id": "usr_Bi76ZO_ym3M", "city": "Екатеринбург", "lat": 56.83530026310687, "lon": 60.63474385977302, "name": "Газпромнефть", "addr": "", "status": "no", "fuels_now": "", "conflict": null, "src": "seed"}, {"id": "usr_zwH7DWcy5tQ", "city": "Екатеринбург", "lat": 56.868023765637496, "lon": 60.634465813664065, "name": "Tamic", "addr": "", "status": "yes", "fuels_now": "92,95", "conflict": null, "src": "seed"}, {"id": "usr_-Kn-OwTFj_s", "city": "Екатеринбург", "lat": 56.79823981423761, "lon": 60.76203137879056, "name": "Petrol", "addr": "", "status": "yes", "fuels_now": "", "conflict": null, "src": "seed"}, {"id": "usr_psCAgYa_T3E", "city": "Екатеринбург", "lat": 56.885122183017586, "lon": 60.58673433959484, "name": "Уралойл", "addr": "", "status": "yes", "fuels_now": "", "conflict": null, "src": "seed"}, {"id": "usr_C0PesJL7VaA", "city": "Екатеринбург", "lat": 56.80843384976708, "lon": 60.65284810960294, "name": "Лукойл", "addr": "", "status": "no", "fuels_now": "", "conflict": null, "src": "seed"}, {"id": "usr_euspRN4YtoU", "city": "Екатеринбург", "lat": 56.840984, "lon": 60.671272, "name": "Varta", "addr": "", "status": null, "fuels_now": "", "conflict": null, "src": "seed"}, {"id": "8914247895", "city": "Екатеринбург", "lat": 56.7936694, "lon": 60.5023363, "name": "Газпромнефть", "addr": "", "status": "queue", "fuels_now": "92,95,98,100,ДТ", "conflict": null, "src": "seed"}, {"id": "967064612", "city": "Екатеринбург", "lat": 56.7717148, "lon": 60.549669, "name": "АЗС", "addr": "", "status": "no", "fuels_now": "", "conflict": null, "src": "seed"}, {"id": "8273099203", "city": "Екатеринбург", "lat": 56.7508358, "lon": 60.5674881, "name": "ЭкоПромГаз", "addr": "", "status": null, "fuels_now": "", "conflict": null, "src": "seed"}, {"id": "10882945590", "city": "Екатеринбург", "lat": 56.7529748, "lon": 60.5800952, "name": "МЕГА", "addr": "", "status": "yes", "fuels_now": "", "conflict": null, "src": "seed"}, {"id": "11516274566", "city": "Екатеринбург", "lat": 56.7529919, "lon": 60.5796613, "name": "АГЗС", "addr": "", "status": null, "fuels_now": "", "conflict": null, "src": "seed"}, {"id": "1104252234", "city": "Екатеринбург", "lat": 56.7493412, "lon": 60.5916508, "name": "Газпром АГНКС-1", "addr": "переулок Энергетиков, 10", "status": null, "fuels_now": "", "conflict": null, "src": "seed"}, {"id": "430577182", "city": "Екатеринбург", "lat": 56.7608795, "lon": 60.5878621, "name": "Лукойл", "addr": "", "status": "no", "fuels_now": "", "conflict": null, "src": "seed"}, {"id": "1150469462", "city": "Екатеринбург", "lat": 56.7799508, "lon": 60.5595111, "name": "Опти", "addr": "улица Амундсена, 101Б", "status": "no", "fuels_now": "", "conflict": null, "src": "seed"}, {"id": "466973492", "city": "Екатеринбург", "lat": 56.7916822, "lon": 60.5716703, "name": "Газпромнефть", "addr": "", "status": "low", "fuels_now": "92,ДТ", "conflict": null, "src": "seed"}, {"id": "1407000426", "city": "Екатеринбург", "lat": 56.7722319, "lon": 60.6001648, "name": "Газпромнефть", "addr": "улица Патриса Лумумбы, 4В", "status": "queue", "fuels_now": "92,95", "conflict": null, "src": "seed"}, {"id": "612497479", "city": "Екатеринбург", "lat": 56.7871043, "lon": 60.607103, "name": "Газпромнефть", "addr": "", "status": "queue", "fuels_now": "92,95,98,ДТ", "conflict": null, "src": "seed"}, {"id": "469180545", "city": "Екатеринбург", "lat": 56.8192876, "lon": 60.5075893, "name": "Лукойл", "addr": "", "status": "yes", "fuels_now": "92,95,98,100,ДТ", "conflict": null, "src": "seed"}, {"id": "423738494", "city": "Екатеринбург", "lat": 56.8124361, "lon": 60.5169578, "name": "Нягань-Газ", "addr": "улица Соболева, 3", "status": "no", "fuels_now": "", "conflict": null, "src": "seed"}, {"id": "790029878", "city": "Екатеринбург", "lat": 56.8021218, "lon": 60.5448688, "name": "Газпромнефть", "addr": "", "status": "no", "fuels_now": "", "conflict": null, "src": "seed"}, {"id": "911708926", "city": "Екатеринбург", "lat": 56.8181801, "lon": 60.5373054, "name": "Лукойл", "addr": "", "status": "no", "fuels_now": "", "conflict": null, "src": "seed"}, {"id": "491031557", "city": "Екатеринбург", "lat": 56.8139604, "lon": 60.5525123, "name": "Лукойл", "addr": "", "status": "no", "fuels_now": "", "conflict": null, "src": "seed"}, {"id": "475876247", "city": "Екатеринбург", "lat": 56.8217071, "lon": 60.5520165, "name": "Башнефть", "addr": "", "status": "no", "fuels_now": "", "conflict": null, "src": "seed"}, {"id": "2814724646", "city": "Екатеринбург", "lat": 56.8308411, "lon": 60.5182101, "name": "ГАЗЭКС", "addr": "улица Крауля, 178А", "status": null, "fuels_now": "", "conflict": null, "src": "seed"}, {"id": "913068535", "city": "Екатеринбург", "lat": 56.8326651, "lon": 60.5270351, "name": "Газпромнефть", "addr": "", "status": "yes", "fuels_now": "92,95,98,100,ДТ", "conflict": null, "src": "seed"}, {"id": "707134927", "city": "Екатеринбург", "lat": 56.808658, "lon": 60.592064, "name": "Башнефть", "addr": "", "status": "no", "fuels_now": "", "conflict": null, "src": "seed"}, {"id": "548486718", "city": "Екатеринбург", "lat": 56.7968621, "lon": 60.5952322, "name": "Лукойл", "addr": "", "status": "no", "fuels_now": "", "conflict": null, "src": "seed"}, {"id": "548486727", "city": "Екатеринбург", "lat": 56.7985526, "lon": 60.5964206, "name": "Газпромнефть", "addr": "Московская улица, 283", "status": "yes", "fuels_now": "92,95,98,100,ДТ", "conflict": null, "src": "seed"}, {"id": "8725688122", "city": "Екатеринбург", "lat": 56.798192, "lon": 60.5970242, "name": "РозТорГаз", "addr": "", "status": "yes", "fuels_now": "", "conflict": null, "src": "seed"}, {"id": "508560103", "city": "Екатеринбург", "lat": 56.8138613, "lon": 60.5853252, "name": "Tamik Energy", "addr": "", "status": "yes", "fuels_now": "", "conflict": null, "src": "seed"}, {"id": "474645658", "city": "Екатеринбург", "lat": 56.8247199, "lon": 60.560217, "name": "Газпромнефть", "addr": "", "status": "queue", "fuels_now": "92,95", "conflict": null, "src": "seed"}, {"id": "456726114", "city": "Екатеринбург", "lat": 56.845583, "lon": 60.5607945, "name": "Газпромнефть", "addr": "", "status": "no", "fuels_now": "", "conflict": null, "src": "seed"}, {"id": "913068583", "city": "Екатеринбург", "lat": 56.8489114, "lon": 60.5577847, "name": "Газпромнефть", "addr": "", "status": "yes", "fuels_now": "92,95,ДТ", "conflict": null, "src": "seed"}, {"id": "992362178", "city": "Екатеринбург", "lat": 56.82365, "lon": 60.6069973, "name": "Газпромнефть", "addr": "", "status": "no", "fuels_now": "", "conflict": null, "src": "seed"}, {"id": "694130844", "city": "Екатеринбург", "lat": 56.8439883, "lon": 60.5853242, "name": "Газпромнефть", "addr": "улица Февральской Революции, 53", "status": "no", "fuels_now": "", "conflict": null, "src": "seed"}, {"id": "8725892177", "city": "Екатеринбург", "lat": 56.7534992, "lon": 60.6079822, "name": "GGroup", "addr": "", "status": "no", "fuels_now": "", "conflict": null, "src": "seed"}, {"id": "7797892960", "city": "Екатеринбург", "lat": 56.7605843, "lon": 60.6123227, "name": "GGroup", "addr": "", "status": "low", "fuels_now": "", "conflict": null, "src": "seed"}, {"id": "911708897", "city": "Екатеринбург", "lat": 56.7583879, "lon": 60.6277521, "name": "Лукойл", "addr": "", "status": "no", "fuels_now": "", "conflict": null, "src": "seed"}, {"id": "853148322", "city": "Екатеринбург", "lat": 56.7956625, "lon": 60.6126503, "name": "Башнефть", "addr": "", "status": "no", "fuels_now": "", "conflict": null, "src": "seed"}, {"id": "5382809147", "city": "Екатеринбург", "lat": 56.7868529, "lon": 60.629422, "name": "Varta", "addr": "", "status": "yes", "fuels_now": "", "conflict": null, "src": "seed"}, {"id": "850625966", "city": "Екатеринбург", "lat": 56.7963973, "lon": 60.6314043, "name": "GGroup", "addr": "", "status": "yes", "fuels_now": "", "conflict": null, "src": "seed"}, {"id": "9709772472", "city": "Екатеринбург", "lat": 56.7965104, "lon": 60.6315007, "name": "Tamic", "addr": "", "status": "yes", "fuels_now": "", "conflict": null, "src": "seed"}, {"id": "850625968", "city": "Екатеринбург", "lat": 56.79297, "lon": 60.6416961, "name": "Лукойл", "addr": "", "status": "no", "fuels_now": "", "conflict": null, "src": "seed"}, {"id": "853404440", "city": "Екатеринбург", "lat": 56.7908772, "lon": 60.6455938, "name": "Газпромнефть", "addr": "", "status": "no", "fuels_now": "", "conflict": null, "src": "seed"}, {"id": "911708939", "city": "Екатеринбург", "lat": 56.7758638, "lon": 60.664079, "name": "Лукойл", "addr": "", "status": "no", "fuels_now": "", "conflict": null, "src": "seed"}, {"id": "5795294385", "city": "Екатеринбург", "lat": 56.7761654, "lon": 60.6637081, "name": "ГАЗЭКС", "addr": "улица Щербакова, 87", "status": null, "fuels_now": "", "conflict": null, "src": "seed"}, {"id": "644610957", "city": "Екатеринбург", "lat": 56.7901131, "lon": 60.6685594, "name": "Газпромнефть", "addr": "улица Академика Павлова, 1В", "status": "yes", "fuels_now": "92,95,98,100,ДТ", "conflict": null, "src": "seed"}, {"id": "856180821", "city": "Екатеринбург", "lat": 56.7890752, "lon": 60.6763302, "name": "Лукойл", "addr": "", "status": "yes", "fuels_now": "92,95,ДТ", "conflict": null, "src": "seed"}, {"id": "568020047", "city": "Екатеринбург", "lat": 56.7988334, "lon": 60.6124748, "name": "Лукойл", "addr": "улица 8 Марта, 183А", "status": "no", "fuels_now": "", "conflict": null, "src": "seed"}, {"id": "469842529", "city": "Екатеринбург", "lat": 56.8164204, "lon": 60.624259, "name": "VARTA", "addr": "", "status": null, "fuels_now": "", "conflict": null, "src": "seed"}, {"id": "617979426", "city": "Екатеринбург", "lat": 56.8174704, "lon": 60.6338399, "name": "Татнефть", "addr": "", "status": "no", "fuels_now": "", "conflict": null, "src": "seed"}, {"id": "494273891", "city": "Екатеринбург", "lat": 56.8047079, "lon": 60.6512145, "name": "GetPetrol", "addr": "", "status": "no", "fuels_now": "", "conflict": null, "src": "seed"}, {"id": "979316261", "city": "Екатеринбург", "lat": 56.8182824, "lon": 60.6370064, "name": "Опти", "addr": "улица Ткачей, 7А", "status": "no", "fuels_now": "", "conflict": null, "src": "seed"}, {"id": "4863709190", "city": "Екатеринбург", "lat": 56.8215305, "lon": 60.6577066, "name": "Газпромнефть", "addr": "", "status": "yes", "fuels_now": "92,95,98,100,ДТ", "conflict": null, "src": "seed"}, {"id": "4566072323", "city": "Екатеринбург", "lat": 56.845216, "lon": 60.632331, "name": "Газпромнефть", "addr": "", "status": "no", "fuels_now": "", "conflict": null, "src": "seed"}, {"id": "471730362", "city": "Екатеринбург", "lat": 56.8384876, "lon": 60.6393631, "name": "Роснефть", "addr": "", "status": "no", "fuels_now": "", "conflict": null, "src": "seed"}, {"id": "619713752", "city": "Екатеринбург", "lat": 56.8128868, "lon": 60.6912837, "name": "Лукойл", "addr": "", "status": "no", "fuels_now": "", "conflict": null, "src": "seed"}, {"id": "833052330", "city": "Екатеринбург", "lat": 56.8298516, "lon": 60.6663877, "name": "Нягань-Газ", "addr": "", "status": null, "fuels_now": "", "conflict": null, "src": "seed"}, {"id": "886695177", "city": "Екатеринбург", "lat": 56.8358685, "lon": 60.6624137, "name": "Лукойл", "addr": "", "status": "no", "fuels_now": "", "conflict": null, "src": "seed"}, {"id": "778825285", "city": "Екатеринбург", "lat": 56.8316766, "lon": 60.6738545, "name": "Independent", "addr": "", "status": null, "fuels_now": "", "conflict": null, "src": "seed"}, {"id": "8065729529", "city": "Екатеринбург", "lat": 56.8317256, "lon": 60.6743437, "name": "Экогаз", "addr": "", "status": null, "fuels_now": "", "conflict": null, "src": "seed"}, {"id": "755626082", "city": "Екатеринбург", "lat": 56.8355142, "lon": 60.6808048, "name": "Башнефть", "addr": "", "status": "yes", "fuels_now": "92,95", "conflict": null, "src": "seed"}, {"id": "630889791", "city": "Екатеринбург", "lat": 56.8483955, "lon": 60.6697775, "name": "Газпромнефть", "addr": "", "status": "queue", "fuels_now": "", "conflict": null, "src": "seed"}, {"id": "461525303", "city": "Екатеринбург", "lat": 56.8425478, "lon": 60.6761639, "name": "Газпромнефть", "addr": "", "status": "no", "fuels_now": "", "conflict": null, "src": "seed"}, {"id": "953871852", "city": "Екатеринбург", "lat": 56.8240791, "lon": 60.6929, "name": "Татнефть", "addr": "", "status": "no", "fuels_now": "", "conflict": null, "src": "seed"}, {"id": "8370776399", "city": "Екатеринбург", "lat": 56.7526778, "lon": 60.7234509, "name": "Экогаз", "addr": "", "status": null, "fuels_now": "", "conflict": null, "src": "seed"}, {"id": "650013474", "city": "Екатеринбург", "lat": 56.7590088, "lon": 60.7263413, "name": "АТОМ-ОЙЛ", "addr": "", "status": "no", "fuels_now": "", "conflict": null, "src": "seed"}, {"id": "10124416384", "city": "Екатеринбург", "lat": 56.7613465, "lon": 60.7385946, "name": "Tamic Energy", "addr": "", "status": "yes", "fuels_now": "", "conflict": null, "src": "seed"}, {"id": "2879972990", "city": "Екатеринбург", "lat": 56.7612529, "lon": 60.7394975, "name": "GGroup", "addr": "", "status": null, "fuels_now": "", "conflict": null, "src": "seed"}, {"id": "534607431", "city": "Екатеринбург", "lat": 56.772904, "lon": 60.7244419, "name": "Газпромнефть", "addr": "", "status": "no", "fuels_now": "", "conflict": null, "src": "seed"}, {"id": "623043346", "city": "Екатеринбург", "lat": 56.7867827, "lon": 60.7340859, "name": "Газпром АГНКС-3", "addr": "", "status": null, "fuels_now": "", "conflict": null, "src": "seed"}, {"id": "635759361", "city": "Екатеринбург", "lat": 56.787403, "lon": 60.7326664, "name": "Лукойл", "addr": "", "status": "no", "fuels_now": "", "conflict": null, "src": "seed"}, {"id": "7880437933", "city": "Екатеринбург", "lat": 56.7856806, "lon": 60.7355332, "name": "Tamic energy", "addr": "", "status": "yes", "fuels_now": "", "conflict": null, "src": "seed"}, {"id": "8725895160", "city": "Екатеринбург", "lat": 56.7860956, "lon": 60.7348234, "name": "GGroup", "addr": "", "status": null, "fuels_now": "", "conflict": null, "src": "seed"}, {"id": "913068516", "city": "Екатеринбург", "lat": 56.8052184, "lon": 60.7219471, "name": "Газпромнефть", "addr": "", "status": "yes", "fuels_now": "", "conflict": null, "src": "seed"}, {"id": "913068640", "city": "Екатеринбург", "lat": 56.8205972, "lon": 60.7143753, "name": "Газпромнефть", "addr": "", "status": "yes", "fuels_now": "92,95,ДТ", "conflict": null, "src": "seed"}, {"id": "8725912310", "city": "Екатеринбург", "lat": 56.8088688, "lon": 60.7682593, "name": "GGroup", "addr": "", "status": null, "fuels_now": "", "conflict": null, "src": "seed"}, {"id": "903704785", "city": "Екатеринбург", "lat": 56.8546739, "lon": 60.5520133, "name": "Лукойл", "addr": "", "status": "no", "fuels_now": "", "conflict": null, "src": "seed"}, {"id": "755626060", "city": "Екатеринбург", "lat": 56.8669601, "lon": 60.5466449, "name": "Башнефть", "addr": "", "status": "no", "fuels_now": "", "conflict": null, "src": "seed"}, {"id": "463190972", "city": "Екатеринбург", "lat": 56.8701315, "lon": 60.5504032, "name": "Лукойл", "addr": "улица Пехотинцев, 8", "status": "no", "fuels_now": "", "conflict": null, "src": "seed"}, {"id": "737749252", "city": "Екатеринбург", "lat": 56.8850727, "lon": 60.5081668, "name": "GGroup", "addr": "Дружининская улица, 3", "status": "no", "fuels_now": "", "conflict": null, "src": "seed"}, {"id": "585205835", "city": "Екатеринбург", "lat": 56.8806708, "lon": 60.5215066, "name": "Ликойл", "addr": "", "status": "no", "fuels_now": "", "conflict": null, "src": "seed"}, {"id": "8706534117", "city": "Екатеринбург", "lat": 56.8807622, "lon": 60.5211732, "name": "Экогаз", "addr": "", "status": "no", "fuels_now": "", "conflict": null, "src": "seed"}, {"id": "913068529", "city": "Екатеринбург", "lat": 56.8874223, "lon": 60.5288086, "name": "Газпромнефть", "addr": "", "status": "no", "fuels_now": "", "conflict": null, "src": "seed"}, {"id": "2440028232", "city": "Екатеринбург", "lat": 56.8786285, "lon": 60.5508106, "name": "Varta", "addr": "Автомагистральная улица, 37", "status": null, "fuels_now": "", "conflict": null, "src": "seed"}, {"id": "8725802966", "city": "Екатеринбург", "lat": 56.858144, "lon": 60.5645572, "name": "GGroup", "addr": "", "status": "yes", "fuels_now": "", "conflict": null, "src": "seed"}, {"id": "8933583332", "city": "Екатеринбург", "lat": 56.8529444, "lon": 60.5718796, "name": "Башнефть", "addr": "", "status": "yes", "fuels_now": "95", "conflict": null, "src": "seed"}, {"id": "5053061909", "city": "Екатеринбург", "lat": 56.8562958, "lon": 60.5765636, "name": "Лукойл", "addr": "", "status": "no", "fuels_now": "", "conflict": null, "src": "seed"}, {"id": "8639241015", "city": "Екатеринбург", "lat": 56.8668862, "lon": 60.5939859, "name": "Gas66", "addr": "", "status": null, "fuels_now": "", "conflict": null, "src": "seed"}, {"id": "633593344", "city": "Екатеринбург", "lat": 56.9150039, "lon": 60.5775399, "name": "Газпромнефть", "addr": "", "status": "no", "fuels_now": "", "conflict": null, "src": "seed"}, {"id": "436174657", "city": "Екатеринбург", "lat": 56.9131283, "lon": 60.5989512, "name": "Лукойл", "addr": "", "status": "no", "fuels_now": "", "conflict": null, "src": "seed"}, {"id": "619677054", "city": "Екатеринбург", "lat": 56.8606943, "lon": 60.6139712, "name": "Лукойл", "addr": "улица Маяковского, 1А", "status": "yes", "fuels_now": "92,95", "conflict": null, "src": "seed"}, {"id": "7702314088", "city": "Екатеринбург", "lat": 56.8603303, "lon": 60.6117761, "name": "Газпромнефть", "addr": "", "status": "queue", "fuels_now": "92,95,98,100,ДТ", "conflict": null, "src": "seed"}, {"id": "494789937", "city": "Екатеринбург", "lat": 56.8536068, "lon": 60.6208488, "name": "АЗС 21", "addr": "", "status": "no", "fuels_now": "", "conflict": null, "src": "seed"}, {"id": "669980227", "city": "Екатеринбург", "lat": 56.8625604, "lon": 60.6127705, "name": "Башнефть", "addr": "", "status": "no", "fuels_now": "", "conflict": null, "src": "seed"}, {"id": "932546647", "city": "Екатеринбург", "lat": 56.8647, "lon": 60.6138347, "name": "Газпромнефть", "addr": "", "status": "no", "fuels_now": "", "conflict": null, "src": "seed"}, {"id": "835035704", "city": "Екатеринбург", "lat": 56.8763464, "lon": 60.61, "name": "Varta", "addr": "проспект Космонавтов, 17Д", "status": null, "fuels_now": "", "conflict": null, "src": "seed"}, {"id": "600076807", "city": "Екатеринбург", "lat": 56.8867083, "lon": 60.6081366, "name": "Лукойл", "addr": "улица Машиностроителей, 5", "status": "no", "fuels_now": "", "conflict": null, "src": "seed"}, {"id": "913068608", "city": "Екатеринбург", "lat": 56.8595997, "lon": 60.6627931, "name": "Газпромнефть", "addr": "", "status": "no", "fuels_now": "", "conflict": null, "src": "seed"}, {"id": "666909934", "city": "Екатеринбург", "lat": 56.8609604, "lon": 60.6745395, "name": "Роснефть", "addr": "", "status": "no", "fuels_now": "", "conflict": null, "src": "seed"}, {"id": "913068632", "city": "Екатеринбург", "lat": 56.8632972, "lon": 60.6647103, "name": "Лукойл", "addr": "улица Блюхера, 91", "status": "no", "fuels_now": "", "conflict": null, "src": "seed"}, {"id": "7051471085", "city": "Екатеринбург", "lat": 56.8724913, "lon": 60.6655131, "name": "Опти", "addr": "Промышленный проезд, 1Б", "status": "no", "fuels_now": "", "conflict": null, "src": "seed"}, {"id": "7358717186", "city": "Екатеринбург", "lat": 56.8692881, "lon": 60.6697163, "name": "Mega", "addr": "", "status": "no", "fuels_now": "", "conflict": null, "src": "seed"}, {"id": "8065721273", "city": "Екатеринбург", "lat": 56.8690533, "lon": 60.669698, "name": "Экогаз", "addr": "", "status": null, "fuels_now": "", "conflict": null, "src": "seed"}, {"id": "1104252233", "city": "Екатеринбург", "lat": 56.8791012, "lon": 60.6745269, "name": "Газпром АГНКС-2", "addr": "Промышленный проезд, 12", "status": null, "fuels_now": "", "conflict": null, "src": "seed"}, {"id": "884220652", "city": "Екатеринбург", "lat": 56.8917572, "lon": 60.7721637, "name": "Лукойл", "addr": "", "status": "no", "fuels_now": "", "conflict": null, "src": "seed"}, {"id": "1743514872", "city": "Екатеринбург", "lat": 56.9132373, "lon": 60.7562575, "name": "Башнефть", "addr": "", "status": "no", "fuels_now": "", "conflict": null, "src": "seed"}, {"id": "911708915", "city": "Екатеринбург", "lat": 56.9044999, "lon": 60.7769465, "name": "Лукойл", "addr": "", "status": "no", "fuels_now": "", "conflict": null, "src": "seed"}, {"id": "10026122104", "city": "Екатеринбург", "lat": 56.8570125, "lon": 60.5894989, "name": "Ggroup", "addr": "ул Стрелочников, 10А", "status": "yes", "fuels_now": "92", "conflict": null, "src": "seed"}, {"id": "10164832693", "city": "Екатеринбург", "lat": 56.7660778, "lon": 60.5563605, "name": "Лукойл", "addr": "ул Предельная, 59", "status": "no", "fuels_now": "", "conflict": null, "src": "seed"}, {"id": "10164832711", "city": "Екатеринбург", "lat": 56.8688197, "lon": 60.5852325, "name": "Лукойл", "addr": "ул Артинская, 22Г", "status": "no", "fuels_now": "", "conflict": null, "src": "seed"}, {"id": "1021334208", "city": "Екатеринбург", "lat": 56.8817452, "lon": 60.5490684, "name": "Газпромнефть", "addr": "Никольский пер, 1Б", "status": "no", "fuels_now": "", "conflict": null, "src": "seed"}, {"id": "1038072314", "city": "Екатеринбург", "lat": 56.8874883, "lon": 60.731722, "name": "Лукойл", "addr": "ул Трудовая, 22", "status": "no", "fuels_now": "", "conflict": null, "src": "seed"}, {"id": "1038072588", "city": "Екатеринбург", "lat": 56.8892575, "lon": 60.7320788, "name": "Лукойл", "addr": "ул Трудовая, 31", "status": "no", "fuels_now": "", "conflict": null, "src": "seed"}, {"id": "1070962206", "city": "Екатеринбург", "lat": 56.8542835, "lon": 60.5544413, "name": "Башнефть", "addr": "ул Бебеля, 132Б", "status": "yes", "fuels_now": "92,95", "conflict": null, "src": "seed"}, {"id": "10801156433", "city": "Екатеринбург", "lat": 56.7726213, "lon": 60.5459525, "name": "GGroup", "addr": "ул Амундсена, 115", "status": null, "fuels_now": "", "conflict": null, "src": "seed"}, {"id": "1081735964", "city": "Екатеринбург", "lat": 56.8012329, "lon": 60.5865597, "name": "Башнефть", "addr": "ул Волгоградская, 33", "status": "no", "fuels_now": "", "conflict": null, "src": "seed"}, {"id": "10847869642", "city": "Екатеринбург", "lat": 56.8744497, "lon": 60.5159435, "name": "Семь ключей", "addr": "ул Техническая, 85", "status": "no", "fuels_now": "", "conflict": null, "src": "seed"}, {"id": "1119594463", "city": "Екатеринбург", "lat": 56.8236343, "lon": 60.7048877, "name": "Газпромнефть", "addr": "Дублер Сибирского тракта, 1", "status": "no", "fuels_now": "", "conflict": null, "src": "seed"}, {"id": "11304374723", "city": "Екатеринбург", "lat": 56.7510546, "lon": 60.5669021, "name": "АЗС", "addr": "ул Чемпионов, 7", "status": "no", "fuels_now": "", "conflict": null, "src": "seed"}, {"id": "11397754006", "city": "Екатеринбург", "lat": 56.8395219, "lon": 60.6943989, "name": "Caravan", "addr": "ул 40-летия Комсомола, 1В", "status": null, "fuels_now": "", "conflict": null, "src": "seed"}, {"id": "1150922358", "city": "Екатеринбург", "lat": 56.7693684, "lon": 60.615387, "name": "Газпромнефть", "addr": "ул Титова, 37", "status": "no", "fuels_now": "", "conflict": null, "src": "seed"}, {"id": "11531717365", "city": "Екатеринбург", "lat": 56.7867035, "lon": 60.6296237, "name": "АЗС", "addr": "Водительский пр-д, 20", "status": null, "fuels_now": "", "conflict": null, "src": "seed"}, {"id": "1156426476", "city": "Екатеринбург", "lat": 56.7575506, "lon": 60.6260396, "name": "Varta", "addr": "Елизаветинское шоссе, 41/1", "status": "no", "fuels_now": "", "conflict": null, "src": "seed"}, {"id": "11677583316", "city": "Екатеринбург", "lat": 56.8577404, "lon": 60.5566279, "name": "Varta", "addr": "ул Черепанова, 9", "status": "no", "fuels_now": "", "conflict": null, "src": "seed"}, {"id": "1169392143", "city": "Екатеринбург", "lat": 56.8760136, "lon": 60.6684273, "name": "Caravan", "addr": "Промышленный пр-д, 3А", "status": null, "fuels_now": "", "conflict": null, "src": "seed"}, {"id": "11823940948", "city": "Екатеринбург", "lat": 56.7726806, "lon": 60.5460569, "name": "Tamic Energy", "addr": "ул Амундсена, 115", "status": "yes", "fuels_now": "", "conflict": null, "src": "seed"}, {"id": "1183085412", "city": "Екатеринбург", "lat": 56.7675431, "lon": 60.6272791, "name": "Урал", "addr": "Елизаветинское шоссе, 9", "status": null, "fuels_now": "", "conflict": null, "src": "seed"}, {"id": "1189345602", "city": "Екатеринбург", "lat": 56.772949, "lon": 60.6311711, "name": "GGroup", "addr": "ул Походная, 78", "status": null, "fuels_now": "", "conflict": null, "src": "seed"}, {"id": "1191400090", "city": "Екатеринбург", "lat": 56.8984035, "lon": 60.7669836, "name": "Газпромнефть", "addr": "ул Березовский тракт, 2Б", "status": "yes", "fuels_now": "", "conflict": null, "src": "seed"}, {"id": "11924673707", "city": "Екатеринбург", "lat": 56.7874015, "lon": 60.6327086, "name": "Tamic Energy", "addr": "Водительский пр-д, 20а", "status": "yes", "fuels_now": "", "conflict": null, "src": "seed"}, {"id": "11924673708", "city": "Екатеринбург", "lat": 56.7872195, "lon": 60.6327563, "name": "GGroup", "addr": "Водительский пр-д, 20", "status": null, "fuels_now": "", "conflict": null, "src": "seed"}, {"id": "1200692591", "city": "Екатеринбург", "lat": 56.8878363, "lon": 60.6671318, "name": "Нягань-Газ", "addr": "ул Фронтовых бригад, 49", "status": "no", "fuels_now": "", "conflict": null, "src": "seed"}, {"id": "12183875401", "city": "Екатеринбург", "lat": 56.8268121, "lon": 60.5011068, "name": "Башнефть", "addr": "ул Металлургов, 90", "status": "no", "fuels_now": "", "conflict": null, "src": "seed"}, {"id": "12212358915", "city": "Екатеринбург", "lat": 56.8167477, "lon": 60.6243234, "name": "АГЗС", "addr": "ул Цвиллинга, 3", "status": null, "fuels_now": "", "conflict": null, "src": "seed"}, {"id": "1224959536", "city": "Екатеринбург", "lat": 56.8841849, "lon": 60.5425463, "name": "7 ключей", "addr": "ул Автомагистральная, 45", "status": "no", "fuels_now": "", "conflict": null, "src": "seed"}, {"id": "12312347771", "city": "Екатеринбург", "lat": 56.7477742, "lon": 60.5779658, "name": "BNP", "addr": "ул 2-я Новосибирская, 71", "status": "yes", "fuels_now": "", "conflict": null, "src": "seed"}, {"id": "12418274888", "city": "Екатеринбург", "lat": 56.8535815, "lon": 60.6207482, "name": "GGroup", "addr": "ул Восточная, 5В", "status": "no", "fuels_now": "", "conflict": null, "src": "seed"}, {"id": "12418405283", "city": "Екатеринбург", "lat": 56.8850621, "lon": 60.5078358, "name": "Tamic Energy", "addr": "ул Дружининская, 3", "status": "no", "fuels_now": "", "conflict": null, "src": "seed"}, {"id": "12419017251", "city": "Екатеринбург", "lat": 56.7728151, "lon": 60.6311121, "name": "Tamic Energy", "addr": "ул Походная, 78", "status": "yes", "fuels_now": "", "conflict": null, "src": "seed"}, {"id": "12419020834", "city": "Екатеринбург", "lat": 56.8687587, "lon": 60.6767972, "name": "GGroup", "addr": "ул Проезжая, 5", "status": "yes", "fuels_now": "", "conflict": null, "src": "seed"}, {"id": "1272059953", "city": "Екатеринбург", "lat": 56.8239148, "lon": 60.6940612, "name": "М-газ", "addr": "Дублер Сибирского тракта, 10", "status": null, "fuels_now": "", "conflict": null, "src": "seed"}, {"id": "12774388711", "city": "Екатеринбург", "lat": 56.8189707, "lon": 60.5111703, "name": "Oillab by Rcc", "addr": "ул Архангела Михаила, 20", "status": "no", "fuels_now": "", "conflict": null, "src": "seed"}, {"id": "12983542401", "city": "Екатеринбург", "lat": 56.7557889, "lon": 60.7592923, "name": "Башнефть", "addr": "ул Черняховского, 86/2", "status": "no", "fuels_now": "", "conflict": null, "src": "seed"}, {"id": "12983542501", "city": "Екатеринбург", "lat": 56.7539209, "lon": 60.7557071, "name": "Tamic", "addr": "ул Черняховского, 82", "status": "yes", "fuels_now": "", "conflict": null, "src": "seed"}, {"id": "12983542601", "city": "Екатеринбург", "lat": 56.8263433, "lon": 60.5231347, "name": "Башнефть", "addr": "ул Отрадная, 129", "status": "no", "fuels_now": "", "conflict": null, "src": "seed"}, {"id": "12984245753", "city": "Екатеринбург", "lat": 56.7568041, "lon": 60.6735621, "name": "Газпромнефть", "addr": "ул Щербакова, 216", "status": "yes", "fuels_now": "", "conflict": null, "src": "seed"}, {"id": "1304494084", "city": "Екатеринбург", "lat": 56.8981325, "lon": 60.7657158, "name": "М-газ", "addr": "ул Березовский тракт, 2А", "status": "no", "fuels_now": "", "conflict": null, "src": "seed"}, {"id": "13111316097", "city": "Екатеринбург", "lat": 56.8458529, "lon": 60.5607529, "name": "АГЗС", "addr": "ул Бебеля, 15", "status": "no", "fuels_now": "", "conflict": null, "src": "seed"}, {"id": "13111340424", "city": "Екатеринбург", "lat": 56.7481103, "lon": 60.57809, "name": "АГЗС Caravan", "addr": "ул 2-я Новосибирская, 71", "status": "yes", "fuels_now": "", "conflict": null, "src": "seed"}, {"id": "13264354102", "city": "Екатеринбург", "lat": 56.8819711, "lon": 60.5484558, "name": "АЗС", "addr": "Никольский пер, 1Б", "status": null, "fuels_now": "", "conflict": null, "src": "seed"}, {"id": "13443390721", "city": "Екатеринбург", "lat": 56.7707061, "lon": 60.5442743, "name": "VARTA", "addr": "ул Амундсена, 119", "status": "no", "fuels_now": "", "conflict": null, "src": "seed"}, {"id": "1356837005", "city": "Екатеринбург", "lat": 56.826046, "lon": 60.5053365, "name": "Роснефть", "addr": "ул Металлургов, 87Б", "status": "yes", "fuels_now": "", "conflict": null, "src": "seed"}, {"id": "1385723342", "city": "Екатеринбург", "lat": 56.9113483, "lon": 60.6201293, "name": "АГЗС Легион-Газ", "addr": "ул Шефская, 114", "status": "no", "fuels_now": "", "conflict": null, "src": "seed"}, {"id": "1388966972", "city": "Екатеринбург", "lat": 56.825629, "lon": 60.5666323, "name": "Газпромнефть", "addr": "ул Посадская, 8", "status": "no", "fuels_now": "", "conflict": null, "src": "seed"}, {"id": "1392061410", "city": "Екатеринбург", "lat": 56.7724598, "lon": 60.7208016, "name": "Лукойл", "addr": "Кольцовский тракт, 50", "status": "yes", "fuels_now": "95", "conflict": null, "src": "seed"}, {"id": "13922391801", "city": "Екатеринбург", "lat": 56.794371, "lon": 60.5030309, "name": "АГЗС", "addr": "ул Рябинина, 32/5", "status": "yes", "fuels_now": "92,95,98,100,ДТ", "conflict": null, "src": "seed"}, {"id": "1415170622", "city": "Екатеринбург", "lat": 56.8219357, "lon": 60.7053378, "name": "Лукойл", "addr": "Дублер Сибирского тракта, 1", "status": "yes", "fuels_now": "", "conflict": null, "src": "seed"}, {"id": "1463877630", "city": "Екатеринбург", "lat": 56.8300501, "lon": 60.6765259, "name": "Лукойл", "addr": "Дублер Сибирского тракта, 5", "status": "no", "fuels_now": "", "conflict": null, "src": "seed"}, {"id": "1490092401", "city": "Екатеринбург", "lat": 56.8180582, "lon": 60.5923222, "name": "Газпромнефть", "addr": "ул Шейнкмана, 123А", "status": "yes", "fuels_now": "", "conflict": null, "src": "seed"}, {"id": "1496454092", "city": "Екатеринбург", "lat": 56.7525641, "lon": 60.726627, "name": "Башнефть", "addr": "ул Черняховского, 66А", "status": "no", "fuels_now": "", "conflict": null, "src": "seed"}, {"id": "1569326162", "city": "Екатеринбург", "lat": 56.7887844, "lon": 60.6189713, "name": "Лукойл", "addr": "ул Крестинского, 40", "status": "no", "fuels_now": "", "conflict": null, "src": "seed"}, {"id": "1608208719", "city": "Екатеринбург", "lat": 56.8446157, "lon": 60.7006528, "name": "Лукойл", "addr": "ул Владимира Высоцкого, 51", "status": "no", "fuels_now": "", "conflict": null, "src": "seed"}, {"id": "1626508236", "city": "Екатеринбург", "lat": 56.7734804, "lon": 60.5460315, "name": "Башнефть", "addr": "ул Амундсена, 118Б", "status": "yes", "fuels_now": "92,95", "conflict": null, "src": "seed"}, {"id": "1647278051", "city": "Екатеринбург", "lat": 56.8888885, "lon": 60.5053259, "name": "Опти", "addr": "ул Ангарская, 36", "status": "no", "fuels_now": "", "conflict": null, "src": "seed"}, {"id": "1660049125", "city": "Екатеринбург", "lat": 56.8928946, "lon": 60.5731863, "name": "Лукойл", "addr": "ул Бакинских комиссаров, 2", "status": "no", "fuels_now": "", "conflict": null, "src": "seed"}, {"id": "1712343719", "city": "Екатеринбург", "lat": 56.8641703, "lon": 60.5787501, "name": "РозТорГаз", "addr": "ул Ереванская, 18", "status": "yes", "fuels_now": "", "conflict": null, "src": "seed"}, {"id": "1714462324", "city": "Екатеринбург", "lat": 56.883687, "lon": 60.6369775, "name": "BNP", "addr": "ул Старых Большевиков, 1А/2", "status": "yes", "fuels_now": "", "conflict": null, "src": "seed"}, {"id": "1717523462", "city": "Екатеринбург", "lat": 56.9128528, "lon": 60.6128207, "name": "Газпромнефть", "addr": "пр-кт Космонавтов, 102", "status": "queue", "fuels_now": "92,95,98,100,ДТ", "conflict": null, "src": "seed"}, {"id": "1770520367", "city": "Екатеринбург", "lat": 56.8664079, "lon": 60.6523018, "name": "АЗС", "addr": "ул Данилы Зверева, 23/1", "status": "yes", "fuels_now": "", "conflict": null, "src": "seed"}, {"id": "1776815498", "city": "Екатеринбург", "lat": 56.866895, "lon": 60.6378982, "name": "Газпромнефть", "addr": "ул Вилонова, 31", "status": "no", "fuels_now": "", "conflict": null, "src": "seed"}, {"id": "1799248414", "city": "Екатеринбург", "lat": 56.7591599, "lon": 60.7303785, "name": "АЗК", "addr": "ул Альпинистов, 57Н", "status": "no", "fuels_now": "", "conflict": null, "src": "seed"}, {"id": "186406311", "city": "Екатеринбург", "lat": 56.8436618, "lon": 60.6883798, "name": "Газпромнефть", "addr": "ул Владимира Высоцкого, 29", "status": "no", "fuels_now": "", "conflict": null, "src": "seed"}, {"id": "2014908167", "city": "Екатеринбург", "lat": 56.9135224, "lon": 60.6163298, "name": "Formula 1", "addr": "ул Шефская, 111", "status": "no", "fuels_now": "", "conflict": null, "src": "seed"}, {"id": "2055549908", "city": "Екатеринбург", "lat": 56.8268443, "lon": 60.5622391, "name": "Лукойл", "addr": "ул Репина, 19/1", "status": "no", "fuels_now": "", "conflict": null, "src": "seed"}, {"id": "2070122887", "city": "Екатеринбург", "lat": 56.8022959, "lon": 60.5444749, "name": "Лукойл", "addr": "ул Начдива Онуфриева, 23", "status": "no", "fuels_now": "", "conflict": null, "src": "seed"}, {"id": "2558925344", "city": "Екатеринбург", "lat": 56.8825146, "lon": 60.6337443, "name": "Лукойл", "addr": "ул Фронтовых бригад, 19А", "status": "no", "fuels_now": "", "conflict": null, "src": "seed"}, {"id": "2826791591", "city": "Екатеринбург", "lat": 56.8788207, "lon": 60.5476305, "name": "АЗС", "addr": "ул Автомагистральная, 39/7", "status": null, "fuels_now": "", "conflict": null, "src": "seed"}, {"id": "2841605825", "city": "Екатеринбург", "lat": 56.8637694, "lon": 60.6136289, "name": "Газтэк", "addr": "пр-кт Космонавтов, 6", "status": null, "fuels_now": "", "conflict": null, "src": "seed"}, {"id": "2869920281", "city": "Екатеринбург", "lat": 56.8896234, "lon": 60.6604693, "name": "ЕКАТЕРИНБУРГГАЗ", "addr": "ул Фронтовых бригад, 37", "status": "yes", "fuels_now": "95", "conflict": null, "src": "seed"}, {"id": "3106309135", "city": "Екатеринбург", "lat": 56.8048145, "lon": 60.6516466, "name": "GGroup", "addr": "Базовый пер, 41", "status": null, "fuels_now": "", "conflict": null, "src": "seed"}, {"id": "3183107541", "city": "Екатеринбург", "lat": 56.8684972, "lon": 60.6351997, "name": "Нягань-Газ", "addr": "ул Учителей, 30А", "status": "yes", "fuels_now": "", "conflict": null, "src": "seed"}, {"id": "3202553823", "city": "Екатеринбург", "lat": 56.8786418, "lon": 60.5561214, "name": "Башнефть", "addr": "ул Донбасская, 55", "status": "no", "fuels_now": "", "conflict": null, "src": "seed"}, {"id": "3227972420", "city": "Екатеринбург", "lat": 56.778307, "lon": 60.6608896, "name": "Башнефть", "addr": "ул Щербакова, 68б", "status": "no", "fuels_now": "", "conflict": null, "src": "seed"}, {"id": "3361729008", "city": "Екатеринбург", "lat": 56.8837069, "lon": 60.6381025, "name": "GGroup", "addr": "ул Старых Большевиков, 1А", "status": null, "fuels_now": "", "conflict": null, "src": "seed"}, {"id": "3396126342", "city": "Екатеринбург", "lat": 56.7884444, "lon": 60.6163327, "name": "Лукойл", "addr": "Водительский пр-д, 10", "status": "no", "fuels_now": "", "conflict": null, "src": "seed"}, {"id": "3748095715", "city": "Екатеринбург", "lat": 56.8758299, "lon": 60.6685251, "name": "АЗС", "addr": "Промышленный пр-д, 3А", "status": "no", "fuels_now": "", "conflict": null, "src": "seed"}, {"id": "4079955164", "city": "Екатеринбург", "lat": 56.8176418, "lon": 60.5874515, "name": "Лукойл", "addr": "ул Посадская, 85", "status": "no", "fuels_now": "", "conflict": null, "src": "seed"}]}