{"city": "Краснодар", "center": [45.035, 39.03], "stations": [{"id": 297719645, "lat": 45.0198613, "lon": 39.0242254, "name": "Лукойл", "addr": "улица Степана Разина", "fuels": ["diesel", "octane_92", "octane_95"]}, {"id": 344120474, "lat": 45.0217882, "lon": 38.9843633, "name": "Кубанский топливный союз", "addr": "", "fuels": []}, {"id": 447783364, "lat": 45.0147092, "lon": 38.9963686, "name": "АЗС", "addr": "", "fuels": ["lpg"]}, {"id": 452244243, "lat": 45.0916513, "lon": 38.9923262, "name": "Роснефть", "addr": "", "fuels": ["diesel", "octane_92", "octane_95"]}, {"id": 452244247, "lat": 45.1338199, "lon": 39.0244543, "name": "АЗС \"Уфимнефть\"", "addr": "", "fuels": ["diesel", "octane_95"]}, {"id": 471807116, "lat": 45.0447008, "lon": 38.9820828, "name": "Лукойл", "addr": "Путевая улица", "fuels": ["diesel", "octane_100", "octane_92", "octane_95"]}, {"id": 510146462, "lat": 45.0237553, "lon": 39.009479, "name": "Лукойл", "addr": "улица Шевченко", "fuels": []}, {"id": 530182118, "lat": 45.0326736, "lon": 39.0979018, "name": "АЗС", "addr": "", "fuels": []}, {"id": 530185515, "lat": 45.0372402, "lon": 39.1042726, "name": "Ситиойл", "addr": "Сормовская улица", "fuels": ["diesel", "octane_92", "octane_95"]}, {"id": 638390026, "lat": 45.0793313, "lon": 39.0006889, "name": "Роснефть", "addr": "", "fuels": ["diesel", "octane_92", "octane_95"]}, {"id": 725142999, "lat": 45.068202, "lon": 38.9099225, "name": "Опти", "addr": "", "fuels": []}, {"id": 806850361, "lat": 45.0621257, "lon": 38.966694, "name": "Rusoil", "addr": "", "fuels": []}, {"id": 910828882, "lat": 45.0717533, "lon": 39.0146922, "name": "Лукойл", "addr": "Российская улица", "fuels": ["diesel", "octane_100", "octane_92", "octane_95"]}, {"id": 1116762321, "lat": 45.0022339, "lon": 38.9634664, "name": "Роснефть", "addr": "улица Захарова", "fuels": ["diesel", "octane_80", "octane_92", "octane_95", "octane_98"]}, {"id": 1233361842, "lat": 45.0375257, "lon": 39.0863753, "name": "Independent", "addr": "", "fuels": ["octane_92", "octane_95"]}, {"id": 1301568400, "lat": 45.0947675, "lon": 38.9923926, "name": "Газ", "addr": "", "fuels": ["lpg"]}, {"id": 1402172096, "lat": 45.0368914, "lon": 38.9554, "name": "Роснефть", "addr": "улица Кубанская Набережная", "fuels": ["octane_92", "octane_95"]}, {"id": 1965108115, "lat": 45.0165901, "lon": 39.0541191, "name": "Роснефть", "addr": "улица Селезнёва", "fuels": ["diesel", "lpg", "octane_92", "octane_95", "octane_98"]}, {"id": 1965108129, "lat": 45.0180473, "lon": 39.0531389, "name": "Пропан", "addr": "", "fuels": ["lpg"]}, {"id": 1966606100, "lat": 45.0600208, "lon": 38.9617549, "name": "Лукойл", "addr": "улица Тургенева", "fuels": ["diesel", "octane_100", "octane_92", "octane_95"]}, {"id": 1977815196, "lat": 45.1023245, "lon": 38.9814336, "name": "Rusoil", "addr": "улица Дзержинского", "fuels": ["diesel", "octane_92", "octane_95", "octane_98"]}, {"id": 1977826223, "lat": 45.1164419, "lon": 38.9859013, "name": "ТНК", "addr": "улица Дзержинского", "fuels": ["diesel", "octane_92", "octane_95", "octane_98"]}, {"id": 1978980336, "lat": 45.1246854, "lon": 38.9879842, "name": "Лукойл", "addr": "улица Дзержинского", "fuels": ["diesel", "lpg", "octane_92", "octane_95"]}, {"id": 1979215679, "lat": 45.1094262, "lon": 38.9955629, "name": "Роснефть-Кубаньнефтепродукт", "addr": "Ростовское шоссе", "fuels": ["octane_92", "octane_95"]}, {"id": 1979232188, "lat": 45.0635426, "lon": 38.9852588, "name": "Лукойл", "addr": "Ростовское шоссе", "fuels": ["diesel", "octane_92", "octane_95", "octane_98"]}, {"id": 1979264104, "lat": 45.0224594, "lon": 39.0490316, "name": "Лукойл", "addr": "Старокубанская улица", "fuels": ["diesel", "octane_100", "octane_92", "octane_95"]}, {"id": 1980661172, "lat": 45.0133038, "lon": 38.9819866, "name": "Лукойл", "addr": "Ставропольская улица", "fuels": ["octane_100", "octane_92", "octane_95"]}, {"id": 1980859821, "lat": 45.0071491, "lon": 38.9680675, "name": "Лукойл", "addr": "улица Захарова", "fuels": ["octane_92", "octane_95"]}, {"id": 1984151658, "lat": 45.0144, "lon": 38.97758, "name": "Газпромнефть", "addr": "", "fuels": ["diesel", "octane_92", "octane_95"]}, {"id": 1984205576, "lat": 45.0230522, "lon": 38.9970861, "name": "Роснефть", "addr": "улица Вишняковой", "fuels": ["diesel", "octane_92", "octane_95", "octane_98"]}, {"id": 1984318138, "lat": 45.0130859, "lon": 39.0651629, "name": "СитиОйл", "addr": "улица Мачуги", "fuels": ["diesel", "octane_92", "octane_95"]}, {"id": 1989406581, "lat": 45.0143465, "lon": 39.046543, "name": "Газпром", "addr": "Старокубанская улица", "fuels": ["octane_92", "octane_95"]}, {"id": 1999633012, "lat": 45.0487828, "lon": 38.9626599, "name": "Роснефть", "addr": "улица Котовского", "fuels": ["diesel", "octane_92", "octane_95"]}, {"id": 2001028653, "lat": 45.0429068, "lon": 39.1082557, "name": "Газпром Нефть", "addr": "Уральская улица", "fuels": ["diesel", "octane_92", "octane_95", "octane_98"]}, {"id": 2010549128, "lat": 45.0225537, "lon": 39.0540558, "name": "Teboil", "addr": "Сормовская улица", "fuels": ["octane_92", "octane_95", "octane_98"]}, {"id": 2077120925, "lat": 45.0324687, "lon": 39.0241007, "name": "Лукойл", "addr": "Новороссийская улица", "fuels": ["diesel", "octane_100", "octane_92", "octane_95"]}, {"id": 2261343234, "lat": 45.0149858, "lon": 39.0968679, "name": "АГЗС, газ пропан", "addr": "Бородинская улица", "fuels": []}, {"id": 2332703041, "lat": 45.0177787, "lon": 39.0534116, "name": "Газпромнефть", "addr": "улица Селезнёва", "fuels": ["diesel", "octane_100", "octane_92", "octane_95"]}, {"id": 2496973351, "lat": 45.0210134, "lon": 39.051173, "name": "Rusoil", "addr": "улица Селезнёва", "fuels": ["diesel", "octane_92", "octane_95"]}, {"id": 2512754213, "lat": 45.0909668, "lon": 38.9776722, "name": "ГАЗON", "addr": "улица Дзержинского", "fuels": ["cng"]}, {"id": 2512754218, "lat": 45.0805208, "lon": 38.9751656, "name": "Газпром", "addr": "улица Дзержинского", "fuels": ["diesel", "octane_92", "octane_95", "octane_98"]}, {"id": 2512754226, "lat": 45.0832654, "lon": 38.9759661, "name": "Уфимнефть", "addr": "улица Дзержинского", "fuels": ["diesel", "lpg", "octane_92", "octane_95"]}, {"id": 2678529351, "lat": 45.0369364, "lon": 39.0283216, "name": "АГНКС метан", "addr": "Восточно-Кругликовская улица", "fuels": ["cng"]}, {"id": 2954162357, "lat": 45.0845206, "lon": 38.9009984, "name": "Роснефть", "addr": "", "fuels": ["octane_95", "octane_98"]}, {"id": 3048710796, "lat": 45.0073695, "lon": 38.9318607, "name": "Лукойл", "addr": "Тургеневское шоссе", "fuels": ["diesel", "lpg", "octane_92", "octane_95"]}, {"id": 3191138443, "lat": 45.0702869, "lon": 38.9872042, "name": "Татнефть", "addr": "Ростовское шоссе", "fuels": ["diesel", "lpg", "octane_92", "octane_95"]}, {"id": 3192851229, "lat": 45.0296809, "lon": 39.0575872, "name": "Газпром", "addr": "улица Лизы Чайкиной", "fuels": ["octane_92", "octane_95"]}, {"id": 3192851230, "lat": 45.0300849, "lon": 39.0572759, "name": "Лукойл", "addr": "улица Лизы Чайкиной", "fuels": ["diesel", "octane_100", "octane_92", "octane_95"]}, {"id": 3193004761, "lat": 45.025161, "lon": 39.0153838, "name": "ТНК", "addr": "", "fuels": []}, {"id": 3215314950, "lat": 45.0281198, "lon": 39.0150763, "name": "Лукойл", "addr": "Новороссийская улица", "fuels": ["diesel", "octane_100", "octane_92", "octane_95", "octane_98"]}, {"id": 3430025117, "lat": 45.0467643, "lon": 38.9742388, "name": "Rusoil", "addr": "", "fuels": ["diesel", "octane_92", "octane_95", "octane_98"]}, {"id": 3823180375, "lat": 45.0252331, "lon": 38.9929664, "name": "Газпромнефть", "addr": "Переходная улица", "fuels": ["diesel", "octane_92", "octane_95"]}, {"id": 4575378690, "lat": 45.0355743, "lon": 39.0339064, "name": "Teboil", "addr": "", "fuels": []}, {"id": 4638013632, "lat": 45.0073927, "lon": 39.1168696, "name": "АЗС", "addr": "", "fuels": []}, {"id": 4730208803, "lat": 45.0435259, "lon": 39.1163288, "name": "Сивнефть", "addr": "Уральская улица", "fuels": ["diesel", "lpg", "octane_92", "octane_95"]}, {"id": 6000377787, "lat": 45.0233665, "lon": 39.0606424, "name": "Лукойл", "addr": "Сормовская улица", "fuels": ["octane_92", "octane_95"]}, {"id": 6000377794, "lat": 45.0386477, "lon": 39.092558, "name": "Роснефть", "addr": "Уральская улица", "fuels": ["diesel", "octane_92", "octane_95", "octane_98"]}, {"id": 6327755787, "lat": 45.1193948, "lon": 38.985058, "name": "Роснефть", "addr": "", "fuels": []}, {"id": 6327755789, "lat": 45.1075695, "lon": 38.938104, "name": "Газпромнефть", "addr": "", "fuels": ["diesel", "lpg", "octane_92", "octane_95"]}, {"id": 7829807792, "lat": 45.0378539, "lon": 39.028598, "name": "Газпромнефть", "addr": "", "fuels": ["diesel", "octane_92", "octane_95"]}, {"id": 9001256224, "lat": 45.0412796, "lon": 39.0960501, "name": "АЗС", "addr": "", "fuels": []}, {"id": 11032162516, "lat": 45.1267051, "lon": 38.9072509, "name": "АЗС", "addr": "", "fuels": []}, {"id": 11871542973, "lat": 45.0331127, "lon": 39.0763461, "name": "Роснефть", "addr": "", "fuels": ["octane_92", "octane_95"]}, {"id": 11872195339, "lat": 45.0702389, "lon": 38.905319, "name": "Газпром", "addr": "", "fuels": ["diesel", "octane_92", "octane_95"]}, {"id": 11883315215, "lat": 45.0117088, "lon": 39.0659411, "name": "ГНК", "addr": "", "fuels": []}, {"id": 11901826117, "lat": 45.0315588, "lon": 39.0413614, "name": "Газпромнефть", "addr": "", "fuels": ["diesel", "octane_100", "octane_92", "octane_95"]}, {"id": 13019721498, "lat": 45.0313209, "lon": 39.0286423, "name": "Газпромнефть", "addr": "Ялтинская улица", "fuels": ["diesel", "octane_100", "octane_92", "octane_95"]}, {"id": 13226771261, "lat": 45.1207738, "lon": 38.9988982, "name": "Роснефть", "addr": "Ростовское шоссе", "fuels": ["octane_92", "octane_95"]}, {"id": 13226771271, "lat": 45.1280947, "lon": 38.9973472, "name": "PNB", "addr": "1-я Дорожная улица", "fuels": []}, {"id": 13226771272, "lat": 45.1307342, "lon": 38.9970895, "name": "Газпромнефть", "addr": "1-я Дорожная улица", "fuels": ["diesel", "octane_92", "octane_95"]}, {"id": 13321535017, "lat": 45.0361091, "lon": 39.0728004, "name": "АЗС", "addr": "", "fuels": ["lpg"]}, {"id": 13321535053, "lat": 45.0386714, "lon": 39.0923565, "name": "RusOil", "addr": "", "fuels": []}, {"id": 13943932460, "lat": 45.0327563, "lon": 39.0758222, "name": "АЗС", "addr": "улица Дежнёва", "fuels": ["lpg"]}, {"id": 13944707011, "lat": 45.0146864, "lon": 39.1047503, "name": "Газпром", "addr": "улица Крупской", "fuels": []}, {"id": 13945142544, "lat": 45.0624624, "lon": 38.9180181, "name": "Роснефть", "addr": "улица Академика Лукьяненко", "fuels": ["octane_92", "octane_95", "octane_98"]}]}