{"cities": [{"name": "Новосибирск", "center": [55.03, 82.92]}, {"name": "Краснодар", "center": [45.035, 39.03]}, {"name": "Екатеринбург", "center": [56.838, 60.605]}], "default_city": "Новосибирск", "updated": 1782903339, "stations": [{"id": "usr_yKhOxmQT8Cs", "city": "Новосибирск", "lat": 55.0560957739696, "lon": 82.92624330512864, "name": "Газпром", "addr": "", "status": "queue", "fuels_now": "92,ДТ", "conflict": null, "src": "seed"}, {"id": "usr_M3BwRheaa_k", "city": "Новосибирск", "lat": 55.0115165091333, "lon": 82.86094129085542, "name": "Сиб-гсм", "addr": "", "status": "no", "fuels_now": "", "conflict": null, "src": "seed"}, {"id": "usr_O52rtIw8RTE", "city": "Новосибирск", "lat": 54.977462, "lon": 83.028259, "name": "Опти", "addr": "", "status": "no", "fuels_now": "", "conflict": null, "src": "seed"}, {"id": "usr_h-I07bVxgIg", "city": "Новосибирск", "lat": 54.978063, "lon": 83.014721, "name": "Газпромнефть", "addr": "", "status": "no", "fuels_now": "", "conflict": null, "src": "seed"}, {"id": "usr_wf3kHI3uR6I", "city": "Новосибирск", "lat": 55.00103931204959, "lon": 83.01269871902524, "name": "Прайм", "addr": "", "status": "no", "fuels_now": "", "conflict": null, "src": "seed"}, {"id": "usr_j3w_BWyXV1Q", "city": "Новосибирск", "lat": 54.95597810530342, "lon": 83.06146003610253, "name": "Газпромнефть", "addr": "", "status": "queue", "fuels_now": "92,95,98,100,ДТ", "conflict": null, "src": "seed"}, {"id": "usr_OfUtdh3vrYg", "city": "Новосибирск", "lat": 55.121954, "lon": 83.011045, "name": "ТатНефть", "addr": "", "status": "no", "fuels_now": "", "conflict": null, "src": "seed"}, {"id": "usr_QxMZOvS3AUw", "city": "Новосибирск", "lat": 55.02990074381625, "lon": 82.94015765190126, "name": "Нк-нефть", "addr": "", "status": "yes", "fuels_now": "92,95,100,ДТ", "conflict": null, "src": "seed"}, {"id": "usr_jdF3B0O1GMs", "city": "Новосибирск", "lat": 55.039022, "lon": 82.952122, "name": "Газпромнефть", "addr": "", "status": "no", "fuels_now": "", "conflict": null, "src": "seed"}, {"id": "usr__o4p4wd4nNQ", "city": "Новосибирск", "lat": 55.00388038117219, "lon": 83.05507739123641, "name": "Газпромнефть", "addr": "", "status": "no", "fuels_now": "", "conflict": null, "src": "seed"}, {"id": "usr_YC3busY3Ufg", "city": "Новосибирск", "lat": 55.098714, "lon": 82.979491, "name": "Газпром", "addr": "", "status": "queue", "fuels_now": "95,98,100,ДТ", "conflict": null, "src": "seed"}, {"id": "usr_zMVGI4Faz7o", "city": "Новосибирск", "lat": 55.060048247724446, "lon": 82.93606996536255, "name": "А Плюс", "addr": "", "status": "no", "fuels_now": "", "conflict": null, "src": "seed"}, {"id": "usr_9-vyVtCINQ0", "city": "Новосибирск", "lat": 55.07767007170836, "lon": 83.03444695891814, "name": "Прайм", "addr": "", "status": "no", "fuels_now": "", "conflict": null, "src": "seed"}, {"id": "usr_HpRAnBiOyRM", "city": "Новосибирск", "lat": 55.032024730694275, "lon": 82.99384117126466, "name": "Газпромнефть", "addr": "", "status": "queue", "fuels_now": "92,95,98,ДТ", "conflict": null, "src": "seed"}, {"id": "usr_3UQTtjPLOMg", "city": "Новосибирск", "lat": 54.935077830336105, "lon": 83.0944715587091, "name": "Газойл", "addr": "", "status": "no", "fuels_now": "", "conflict": null, "src": "seed"}, {"id": "usr_JTg7HBg0g1I", "city": "Новосибирск", "lat": 54.869417936027325, "lon": 82.98961741849782, "name": "Газпромнефть", "addr": "", "status": "queue", "fuels_now": "92,95,98,100,ДТ", "conflict": null, "src": "seed"}, {"id": "usr_iMwuexFeE60", "city": "Новосибирск", "lat": 54.95891285545605, "lon": 82.83837854862215, "name": "Teboil", "addr": "", "status": "no", "fuels_now": "", "conflict": null, "src": "seed"}, {"id": "usr_QCjLNpdN5G4", "city": "Новосибирск", "lat": 55.044347, "lon": 82.964815, "name": "Газпромнефть", "addr": "", "status": "no", "fuels_now": "", "conflict": null, "src": "seed"}, {"id": "usr_xTnqdcrD7Go", "city": "Новосибирск", "lat": 54.917116798395035, "lon": 82.98049991950394, "name": "Топаз", "addr": "", "status": "yes", "fuels_now": "92,95,98", "conflict": null, "src": "seed"}, {"id": "usr_D8ptiG6pr68", "city": "Новосибирск", "lat": 54.92210526836401, "lon": 82.95304231345655, "name": "Teboil", "addr": "", "status": "no", "fuels_now": "", "conflict": null, "src": "seed"}, {"id": "usr_1IBDsikLyzU", "city": "Новосибирск", "lat": 54.86949294892452, "lon": 82.99136018380524, "name": "Газпромнефть", "addr": "", "status": "queue", "fuels_now": "92,95,98,100,ДТ", "conflict": null, "src": "seed"}, {"id": "usr_JhlIdxAKHCo", "city": "Новосибирск", "lat": 54.957285013866574, "lon": 82.94200301170349, "name": "ОПТИ", "addr": "", "status": "no", "fuels_now": "", "conflict": null, "src": "seed"}, {"id": "usr_gmqJhULd2g4", "city": "Новосибирск", "lat": 55.034569267344764, "lon": 83.01952958106996, "name": "Тебойл", "addr": "", "status": "no", "fuels_now": "", "conflict": null, "src": "seed"}, {"id": "usr_Z7dmpw0urqA", "city": "Новосибирск", "lat": 55.08414085728143, "lon": 82.96868160367013, "name": "Прайм", "addr": "", "status": "no", "fuels_now": "", "conflict": null, "src": "seed"}, {"id": "usr_yd4LaQ1Zzi8", "city": "Новосибирск", "lat": 55.118397740686945, "lon": 83.00589323043825, "name": "Газпромнефть", "addr": "", "status": "queue", "fuels_now": "100,ДТ", "conflict": null, "src": "seed"}, {"id": "usr_ROxCPcIm-A4", "city": "Новосибирск", "lat": 55.00883412958504, "lon": 82.87460982799531, "name": "ГРАНД", "addr": "", "status": "no", "fuels_now": "", "conflict": null, "src": "seed"}, {"id": "usr_lLGBWZtGIZc", "city": "Новосибирск", "lat": 55.0272380429852, "lon": 82.9384732246399, "name": "ТАТНЕФТЬ", "addr": "", "status": "no", "fuels_now": "", "conflict": null, "src": "seed"}, {"id": "usr_uu2vBnWoKgI", "city": "Новосибирск", "lat": 55.04339600936656, "lon": 82.88369715213777, "name": "Татнефть", "addr": "", "status": "no", "fuels_now": "", "conflict": null, "src": "seed"}, {"id": "usr_kQIwF-2GEMU", "city": "Новосибирск", "lat": 55.051672290721555, "lon": 82.89180010557176, "name": "Прайм", "addr": "", "status": "no", "fuels_now": "", "conflict": null, "src": "seed"}, {"id": "usr_vIWYFQ5uD0s", "city": "Новосибирск", "lat": 54.96782092441671, "lon": 82.9224792122841, "name": "Газпромнефть", "addr": "", "status": "no", "fuels_now": "", "conflict": null, "src": "seed"}, {"id": "usr_emE6Xr47dYg", "city": "Новосибирск", "lat": 54.960425903565906, "lon": 82.94050902128221, "name": "Газпромнефть", "addr": "", "status": "no", "fuels_now": "", "conflict": null, "src": "seed"}, {"id": "usr_kQ_kc7xsnlE", "city": "Новосибирск", "lat": 54.97647918303312, "lon": 83.04498910903932, "name": "Прайм", "addr": "", "status": "no", "fuels_now": "", "conflict": null, "src": "seed"}, {"id": "usr_WzXNwXdLMLA", "city": "Новосибирск", "lat": 54.978237856141064, "lon": 83.02712559700014, "name": "Гранд", "addr": "", "status": "no", "fuels_now": "", "conflict": null, "src": "seed"}, {"id": "usr_rxp2w4lTgUQ", "city": "Новосибирск", "lat": 54.94221269681316, "lon": 82.88889436846986, "name": "Газпромнефть", "addr": "", "status": "queue", "fuels_now": "92,95,ДТ", "conflict": null, "src": "seed"}, {"id": "usr_ka5C3Iw3uNQ", "city": "Новосибирск", "lat": 54.97698451077196, "lon": 83.05330245266305, "name": "TEBOIL", "addr": "", "status": "queue", "fuels_now": "92,95", "conflict": null, "src": "seed"}, {"id": "usr_cQ9XuuHAurc", "city": "Новосибирск", "lat": 54.94863442708367, "lon": 82.89994060993195, "name": "Прайм", "addr": "", "status": "no", "fuels_now": "", "conflict": null, "src": "seed"}, {"id": "usr_oBzecvCM_jM", "city": "Новосибирск", "lat": 54.86341339165557, "lon": 83.07618856430055, "name": "Teboil", "addr": "", "status": "no", "fuels_now": "", "conflict": null, "src": "seed"}, {"id": "usr_jBA8kTiu2z8", "city": "Новосибирск", "lat": 55.1340520418347, "lon": 82.89050728082658, "name": "Опти", "addr": "", "status": "no", "fuels_now": "", "conflict": null, "src": "seed"}, {"id": "usr_lGhR_IIA0ts", "city": "Новосибирск", "lat": 55.029636326472435, "lon": 82.8029787540436, "name": "G7", "addr": "", "status": "no", "fuels_now": "", "conflict": null, "src": "seed"}, {"id": "usr_s4M2BD2KJFo", "city": "Новосибирск", "lat": 55.0294395496424, "lon": 82.80400335788727, "name": "Сибавтогаз", "addr": "", "status": null, "fuels_now": "", "conflict": null, "src": "seed"}, {"id": "usr_Td7fneZ39wY", "city": "Новосибирск", "lat": 55.02199821672513, "lon": 82.81497359275818, "name": "Роснефть", "addr": "", "status": "no", "fuels_now": "", "conflict": null, "src": "seed"}, {"id": "usr_wMXqgS6i1XY", "city": "Новосибирск", "lat": 54.931737593268274, "lon": 82.99826502799989, "name": "Опти", "addr": "", "status": "no", "fuels_now": "", "conflict": null, "src": "seed"}, {"id": "usr_c80Je2wPtTg", "city": "Новосибирск", "lat": 54.919185173400585, "lon": 82.9572379589081, "name": "Татнефть", "addr": "", "status": "yes", "fuels_now": "92", "conflict": null, "src": "seed"}, {"id": "usr_2Zz-kpCxVoY", "city": "Новосибирск", "lat": 55.008878734840295, "lon": 82.8666999936104, "name": "Газойл", "addr": "ул Большая, 274а", "status": null, "fuels_now": "", "conflict": null, "src": "seed"}, {"id": "usr_WuiXrhGjwZc", "city": "Новосибирск", "lat": 55.10618768989421, "lon": 82.97400376643056, "name": "Татнефть", "addr": "", "status": "no", "fuels_now": "", "conflict": null, "src": "seed"}, {"id": "usr_5PQ2Ye0nZf8", "city": "Новосибирск", "lat": 55.072899649569386, "lon": 82.90790498256682, "name": "Роснефть", "addr": "Красный пр-кт, 179/1А", "status": "queue", "fuels_now": "100,ДТ", "conflict": null, "src": "seed"}, {"id": "usr_QZg_lgTte3c", "city": "Новосибирск", "lat": 55.0467381807288, "lon": 82.88025028241708, "name": "Газпромнефть", "addr": "", "status": "queue", "fuels_now": "92,95,100", "conflict": null, "src": "seed"}, {"id": "usr_4-7yu_7AmqI", "city": "Новосибирск", "lat": 54.815269554142795, "lon": 83.09009313583375, "name": "Татнефть", "addr": "Бердское шоссе, 550", "status": "yes", "fuels_now": "92,95,98", "conflict": null, "src": "seed"}, {"id": "usr_UY4tlpjFeJc", "city": "Новосибирск", "lat": 54.84601693877636, "lon": 83.06407034397127, "name": "Прайм", "addr": "", "status": "no", "fuels_now": "", "conflict": null, "src": "seed"}, {"id": "usr_vUvMg4rcqbc", "city": "Новосибирск", "lat": 54.84580381775398, "lon": 83.0656260251999, "name": "Прайм", "addr": "", "status": "no", "fuels_now": "", "conflict": null, "src": "seed"}, {"id": "usr_KxhtL0FdbYg", "city": "Новосибирск", "lat": 54.96462998203549, "lon": 82.85438372418774, "name": "Газпромнефть", "addr": "", "status": "no", "fuels_now": "", "conflict": null, "src": "seed"}, {"id": "usr_gbiMXiZCc_Y", "city": "Новосибирск", "lat": 54.96045221943644, "lon": 82.93970960019139, "name": "Газпромнефть", "addr": "", "status": "queue", "fuels_now": "92,95,100", "conflict": null, "src": "seed"}, {"id": "usr_olkypVRNs9I", "city": "Новосибирск", "lat": 55.08904636360246, "lon": 82.93752908706666, "name": "Энергия", "addr": "", "status": "no", "fuels_now": "", "conflict": null, "src": "seed"}, {"id": "usr_ienb5bEu_LQ", "city": "Новосибирск", "lat": 55.04205437156, "lon": 82.80099391937257, "name": "ПРАЙМ", "addr": "", "status": "no", "fuels_now": "", "conflict": null, "src": "seed"}, {"id": "usr_icbm_WbRB7Q", "city": "Новосибирск", "lat": 55.02996377327444, "lon": 82.93774902820589, "name": "ПРАЙМ", "addr": "", "status": "no", "fuels_now": "", "conflict": null, "src": "seed"}, {"id": "usr_xEC1P_JRZVI", "city": "Новосибирск", "lat": 54.99580386739811, "lon": 82.8043948349245, "name": "Энергия", "addr": "", "status": "no", "fuels_now": "", "conflict": null, "src": "seed"}, {"id": "usr_lvQrDVg-d4g", "city": "Новосибирск", "lat": 55.09041, "lon": 82.894038, "name": "Teboil", "addr": "", "status": "no", "fuels_now": "", "conflict": null, "src": "seed"}, {"id": "usr_ZTkPDzJRnz8", "city": "Новосибирск", "lat": 55.1324167361696, "lon": 82.97417923813555, "name": "Татнефть", "addr": "", "status": "no", "fuels_now": "", "conflict": "queue", "src": "seed"}, {"id": "usr_5plf59IDlXs", "city": "Новосибирск", "lat": 54.964813504038446, "lon": 82.92830805849333, "name": "Роснефть", "addr": "ул Ватутина, 48", "status": "no", "fuels_now": "", "conflict": null, "src": "seed"}, {"id": "usr_cGXVoFWM4Co", "city": "Новосибирск", "lat": 54.94187654562663, "lon": 82.91087865829469, "name": "Гарзпромнефть", "addr": "", "status": "no", "fuels_now": "", "conflict": null, "src": "seed"}, {"id": "usr_50dz-7rA5Go", "city": "Новосибирск", "lat": 54.80833659345409, "lon": 83.08839825669595, "name": "Топаз", "addr": "ул Молодой Гвардии, 1А", "status": "yes", "fuels_now": "92,95,ДТ", "conflict": null, "src": "seed"}, {"id": "usr__3RryAAcsPQ", "city": "Новосибирск", "lat": 54.82251576528603, "lon": 82.85061198765281, "name": "А+", "addr": "", "status": "no", "fuels_now": "", "conflict": null, "src": "seed"}, {"id": "usr_rBJuA6AcwNg", "city": "Новосибирск", "lat": 54.978424878990474, "lon": 83.02487790584564, "name": "Газпромнефть", "addr": "", "status": "queue", "fuels_now": "92,95,98,100,ДТ", "conflict": null, "src": "seed"}, {"id": "usr_OkfQulIbOwM", "city": "Новосибирск", "lat": 54.95814226724636, "lon": 82.95817136764528, "name": "Прайм", "addr": "", "status": "no", "fuels_now": "", "conflict": null, "src": "seed"}, {"id": "usr_UQKMX96M984", "city": "Новосибирск", "lat": 55.003670200991635, "lon": 83.02618682384492, "name": "Опти", "addr": "", "status": "yes", "fuels_now": "92,95,ДТ", "conflict": null, "src": "seed"}, {"id": "472661878", "city": "Новосибирск", "lat": 54.9332184, "lon": 82.8153985, "name": "Лукойл", "addr": "ул Советская, 62б", "status": "yes", "fuels_now": "", "conflict": null, "src": "seed"}, {"id": "472661887", "city": "Новосибирск", "lat": 54.9360875, "lon": 82.8173445, "name": "АГЗС Гранд", "addr": "ул Малыгина, 27А", "status": "no", "fuels_now": "", "conflict": null, "src": "seed"}, {"id": "678597667", "city": "Новосибирск", "lat": 54.855637, "lon": 82.9831879, "name": "Топлаин", "addr": "Приморская улица, 1А", "status": "yes", "fuels_now": "92,95,98,ДТ", "conflict": null, "src": "seed"}, {"id": "625082997", "city": "Новосибирск", "lat": 54.8436916, "lon": 83.0353562, "name": "Газпромнефть", "addr": "ул Плотинная, 1", "status": "queue", "fuels_now": "92,95,98,ДТ", "conflict": null, "src": "seed"}, {"id": "1133549485", "city": "Новосибирск", "lat": 54.9447527, "lon": 82.8477763, "name": "Топаз", "addr": "улица Петухова, 2/1", "status": "yes", "fuels_now": "", "conflict": null, "src": "seed"}, {"id": "472661912", "city": "Новосибирск", "lat": 54.945077, "lon": 82.8583031, "name": "Энергия", "addr": "улица Петухова, 19", "status": "low", "fuels_now": "", "conflict": null, "src": "seed"}, {"id": "634371472", "city": "Новосибирск", "lat": 54.9475586, "lon": 82.8597037, "name": "АЗС", "addr": "ул Петухова, 39/5", "status": "no", "fuels_now": "", "conflict": null, "src": "seed"}, {"id": "384745091", "city": "Новосибирск", "lat": 54.9609891, "lon": 82.8449289, "name": "Газпромнефть", "addr": "Троллейная улица, 152/2", "status": "queue", "fuels_now": "92,95,98,100,ДТ", "conflict": null, "src": "seed"}, {"id": "1143343936", "city": "Новосибирск", "lat": 54.9304493, "lon": 82.9296462, "name": "Опти", "addr": "улица Зорге, 275/1", "status": "no", "fuels_now": "", "conflict": null, "src": "seed"}, {"id": "1118380969", "city": "Новосибирск", "lat": 54.9392821, "lon": 82.9311209, "name": "Газпромнефть", "addr": "улица Петухова, 122/4", "status": "queue", "fuels_now": "92,95,98,ДТ", "conflict": null, "src": "seed"}, {"id": "370711133", "city": "Новосибирск", "lat": 54.9416253, "lon": 82.9365602, "name": "Топлайн", "addr": "улица Петухова, 79А к1", "status": "no", "fuels_now": "", "conflict": null, "src": "seed"}, {"id": "1119629250", "city": "Новосибирск", "lat": 54.893213, "lon": 82.9901827, "name": "Прайм", "addr": "Советское шоссе, 17", "status": "no", "fuels_now": "", "conflict": null, "src": "seed"}, {"id": "9748209570", "city": "Новосибирск", "lat": 54.8514309, "lon": 83.0634912, "name": "СибАвтоГаз", "addr": "Тихая улица, 4", "status": "no", "fuels_now": "", "conflict": null, "src": "seed"}, {"id": "627572834", "city": "Новосибирск", "lat": 54.8331784, "lon": 83.0847639, "name": "Топаз", "addr": "Бердское шоссе, 530", "status": "no", "fuels_now": "", "conflict": null, "src": "seed"}, {"id": "13957444619", "city": "Новосибирск", "lat": 54.8620906, "lon": 83.0983696, "name": "МАЗС Гранд", "addr": "Российская улица, 2", "status": "no", "fuels_now": "", "conflict": null, "src": "seed"}, {"id": "12995781578", "city": "Новосибирск", "lat": 54.8752232, "lon": 83.0767491, "name": "Газпромнефть", "addr": "Бердское шоссе, 470", "status": "no", "fuels_now": "", "conflict": null, "src": "seed"}, {"id": "286568723", "city": "Новосибирск", "lat": 54.9266441, "lon": 83.076696, "name": "Топсиб", "addr": "Бердское шоссе, 65/1", "status": "no", "fuels_now": "", "conflict": null, "src": "seed"}, {"id": "634368732", "city": "Новосибирск", "lat": 54.9574245, "lon": 83.0535727, "name": "АГЗС", "addr": "ул Ремонтная, 2", "status": "yes", "fuels_now": "92", "conflict": null, "src": "seed"}, {"id": "7285012458", "city": "Новосибирск", "lat": 54.9972294, "lon": 82.7823294, "name": "Газпромнефть", "addr": "ул Станционная, 98", "status": "no", "fuels_now": "", "conflict": null, "src": "seed"}, {"id": "634377577", "city": "Новосибирск", "lat": 54.9865284, "lon": 82.8335826, "name": "АЗС", "addr": "ул Связистов, 12", "status": "yes", "fuels_now": "", "conflict": "no", "src": "seed"}, {"id": "739413357", "city": "Новосибирск", "lat": 55.018377, "lon": 82.8111788, "name": "Большая", "addr": "Большая улица, 365/1", "status": "no", "fuels_now": "", "conflict": null, "src": "seed"}, {"id": "2371891541", "city": "Новосибирск", "lat": 55.023318, "lon": 82.8143714, "name": "Роснефть", "addr": "Большая улица, 582/1", "status": "no", "fuels_now": "", "conflict": null, "src": "seed"}, {"id": "611611771", "city": "Новосибирск", "lat": 54.9968478, "lon": 82.8665433, "name": "Газпром", "addr": "ул Станционная, 18/1", "status": null, "fuels_now": "", "conflict": null, "src": "seed"}, {"id": "634377581", "city": "Новосибирск", "lat": 54.9966778, "lon": 82.8681673, "name": "АЗС", "addr": "ул Станционная, 9", "status": null, "fuels_now": "", "conflict": null, "src": "seed"}, {"id": "704995826", "city": "Новосибирск", "lat": 54.9952221, "lon": 82.8666136, "name": "Teboil", "addr": "Широкая улица, 2Б к1", "status": "no", "fuels_now": "", "conflict": null, "src": "seed"}, {"id": "1118314335", "city": "Новосибирск", "lat": 55.0126749, "lon": 82.87873, "name": "Газпромнефть", "addr": "проезд Энергетиков, 8/1", "status": "no", "fuels_now": "", "conflict": null, "src": "seed"}, {"id": "411247720", "city": "Новосибирск", "lat": 54.9703134, "lon": 82.898127, "name": "Опти", "addr": "улица Сибиряков-Гвардейцев, 42/1", "status": "no", "fuels_now": "", "conflict": null, "src": "seed"}, {"id": "393928718", "city": "Новосибирск", "lat": 54.979614, "lon": 82.9121397, "name": "Газпромнефть", "addr": "улица Немировича-Данченко, 145А", "status": "no", "fuels_now": "", "conflict": null, "src": "seed"}, {"id": "604665113", "city": "Новосибирск", "lat": 54.987637, "lon": 82.914564, "name": "Газпромнефть", "addr": "улица Немировича-Данченко, 136/1", "status": "queue", "fuels_now": "92,100,ДТ", "conflict": null, "src": "seed"}, {"id": "364066501", "city": "Новосибирск", "lat": 54.9671651, "lon": 82.9261481, "name": "Энергия", "addr": "улица Ватутина, 103", "status": "no", "fuels_now": "", "conflict": null, "src": "seed"}, {"id": "364066506", "city": "Новосибирск", "lat": 54.9661855, "lon": 82.9278698, "name": "Газойл", "addr": "улица Ватутина, 105/1", "status": "no", "fuels_now": "", "conflict": null, "src": "seed"}, {"id": "1106229354", "city": "Новосибирск", "lat": 54.9722837, "lon": 82.9170441, "name": "Газпромнефть", "addr": "улица Ватутина, 89А", "status": "no", "fuels_now": "", "conflict": null, "src": "seed"}, {"id": "621147918", "city": "Новосибирск", "lat": 55.0400806, "lon": 82.8874622, "name": "Газпромнефть", "addr": "Владимировская улица, 22А", "status": "no", "fuels_now": "", "conflict": null, "src": "seed"}, {"id": "690341186", "city": "Новосибирск", "lat": 55.0250385, "lon": 82.9063198, "name": "Компани", "addr": "ул Максима Горького, 1А", "status": "no", "fuels_now": "", "conflict": null, "src": "seed"}, {"id": "663972036", "city": "Новосибирск", "lat": 55.0300805, "lon": 82.8950997, "name": "Прайм", "addr": "Фабричная улица, 24", "status": "no", "fuels_now": "", "conflict": null, "src": "seed"}, {"id": "1345219713", "city": "Новосибирск", "lat": 55.0220488, "lon": 82.9304609, "name": "Газпромнефть", "addr": "улица Свердлова, 18", "status": "queue", "fuels_now": "98", "conflict": null, "src": "seed"}, {"id": "474973733", "city": "Новосибирск", "lat": 55.0386544, "lon": 82.9297499, "name": "Центр", "addr": "улица Семьи Шамшиных, 61", "status": "no", "fuels_now": "", "conflict": null, "src": "seed"}, {"id": "673452964", "city": "Новосибирск", "lat": 55.0615184, "lon": 82.9369564, "name": "Опти", "addr": "ул Ипподромская, 52А", "status": "no", "fuels_now": "", "conflict": null, "src": "seed"}, {"id": "419054535", "city": "Новосибирск", "lat": 54.9990457, "lon": 82.9602639, "name": "Газпромнефть", "addr": "Большевистская улица, 131/1", "status": "queue", "fuels_now": "92,95,100,ДТ", "conflict": null, "src": "seed"}, {"id": "474954443", "city": "Новосибирск", "lat": 54.9916557, "lon": 82.9792085, "name": "Лукойл", "addr": "ул Большевистская, 130", "status": "yes", "fuels_now": "92,ДТ", "conflict": null, "src": "seed"}, {"id": "410849648", "city": "Новосибирск", "lat": 54.9989062, "lon": 82.9777103, "name": "Газпромнефть", "addr": "улица Декабристов, 271", "status": "no", "fuels_now": "", "conflict": "queue", "src": "seed"}, {"id": "5076609174", "city": "Новосибирск", "lat": 54.9914701, "lon": 82.9854323, "name": "АЗС", "addr": "ул Большевистская, 215/1", "status": "yes", "fuels_now": "92,ДТ", "conflict": null, "src": "seed"}, {"id": "5353612794", "city": "Новосибирск", "lat": 55.0254346, "lon": 82.9494984, "name": "Газпромнефть", "addr": "ул Покатная, 124", "status": "queue", "fuels_now": "92,95", "conflict": null, "src": "seed"}, {"id": "6567033655", "city": "Новосибирск", "lat": 55.0255861, "lon": 82.9678863, "name": "АЗС", "addr": "ул Гурьевская, 181", "status": "no", "fuels_now": "", "conflict": null, "src": "seed"}, {"id": "677285894", "city": "Новосибирск", "lat": 55.0236691, "lon": 82.9747687, "name": "ГазОйл", "addr": "ул Никитина, 107А", "status": "no", "fuels_now": "", "conflict": null, "src": "seed"}, {"id": "634394929", "city": "Новосибирск", "lat": 55.0189638, "lon": 82.9892174, "name": "АЗС", "addr": "ул Панфиловцев, 60", "status": null, "fuels_now": "", "conflict": null, "src": "seed"}, {"id": "4413336442", "city": "Новосибирск", "lat": 55.0407387, "lon": 82.9620244, "name": "Лукойл", "addr": "ул Фрунзе, 240", "status": "no", "fuels_now": "", "conflict": null, "src": "seed"}, {"id": "673880293", "city": "Новосибирск", "lat": 55.0578453, "lon": 82.9808926, "name": "Газпромнефть", "addr": "улица Бродского, 1/1", "status": "no", "fuels_now": "", "conflict": null, "src": "seed"}, {"id": "1119621488", "city": "Новосибирск", "lat": 55.0646425, "lon": 82.9698255, "name": "Прайм", "addr": "Трикотажная улица, 52/3", "status": "no", "fuels_now": "", "conflict": null, "src": "seed"}, {"id": "5217897246", "city": "Новосибирск", "lat": 55.0536053, "lon": 82.9942038, "name": "СибАвтоГаз", "addr": "ул Волочаевская, 64/1", "status": "no", "fuels_now": "", "conflict": null, "src": "seed"}, {"id": "5693173143", "city": "Новосибирск", "lat": 55.055206, "lon": 82.9901996, "name": "АЗС", "addr": "Волочаевская улица, 54", "status": "no", "fuels_now": "", "conflict": null, "src": "seed"}, {"id": "634399062", "city": "Новосибирск", "lat": 55.0331977, "lon": 82.9965055, "name": "АЗС", "addr": "Гусинобродское шоссе, 4", "status": "queue", "fuels_now": "", "conflict": null, "src": "seed"}, {"id": "634401326", "city": "Новосибирск", "lat": 55.0455684, "lon": 83.0008931, "name": "АЗС", "addr": "ул Волочаевская, 78А", "status": null, "fuels_now": "", "conflict": null, "src": "seed"}, {"id": "1345219699", "city": "Новосибирск", "lat": 55.0459734, "lon": 82.9959847, "name": "Газпромнефть", "addr": "улица Доватора, 11/1", "status": "no", "fuels_now": "", "conflict": null, "src": "seed"}, {"id": "683101809", "city": "Новосибирск", "lat": 55.0526308, "lon": 82.9965118, "name": "Газпромнефть", "addr": "ул Есенина, 1Б/1", "status": "no", "fuels_now": "", "conflict": null, "src": "seed"}, {"id": "683030609", "city": "Новосибирск", "lat": 55.0427756, "lon": 83.0386842, "name": "Газпромнефть", "addr": "Гусинобродское шоссе, 45", "status": "queue", "fuels_now": "95", "conflict": null, "src": "seed"}, {"id": "320715271", "city": "Новосибирск", "lat": 55.0694456, "lon": 82.8925849, "name": "Газпромнефть", "addr": "улица Жуковского, 124", "status": "queue", "fuels_now": "92,95,ДТ", "conflict": null, "src": "seed"}, {"id": "675772963", "city": "Новосибирск", "lat": 55.0833824, "lon": 82.8951765, "name": "Газпромнефть", "addr": "Мочищенское шоссе, 25", "status": "queue", "fuels_now": "92,95,100,ДТ", "conflict": null, "src": "seed"}, {"id": "634412018", "city": "Новосибирск", "lat": 55.0879087, "lon": 82.8940339, "name": "ГазОйл", "addr": "Мочищенское шоссе, 25А", "status": "no", "fuels_now": "", "conflict": null, "src": "seed"}, {"id": "675773011", "city": "Новосибирск", "lat": 55.0910314, "lon": 82.8932334, "name": "Nafta24", "addr": "Мочищенское шоссе, 1/2", "status": "no", "fuels_now": "", "conflict": null, "src": "seed"}, {"id": "9884665333", "city": "Новосибирск", "lat": 55.0906965, "lon": 82.8929763, "name": "Gaspro", "addr": "1-е Мочищенское шоссе, 11", "status": null, "fuels_now": "", "conflict": null, "src": "seed"}, {"id": "681809177", "city": "Новосибирск", "lat": 55.1034179, "lon": 82.9367995, "name": "Опти", "addr": "улица Фадеева, 68", "status": "no", "fuels_now": "", "conflict": null, "src": "seed"}, {"id": "4472673869", "city": "Новосибирск", "lat": 55.121045, "lon": 82.9224447, "name": "Газпром", "addr": "1-я Грузинская улица, 28/3", "status": "no", "fuels_now": "", "conflict": null, "src": "seed"}, {"id": "641816867", "city": "Новосибирск", "lat": 55.1203351, "lon": 82.924415, "name": "Сибавтогаз", "addr": "ул 1-я Грузинская, 32/1", "status": null, "fuels_now": "", "conflict": null, "src": "seed"}, {"id": "12581515789", "city": "Новосибирск", "lat": 55.126822, "lon": 82.936739, "name": "Опти", "addr": "", "status": "no", "fuels_now": "", "conflict": null, "src": "seed"}, {"id": "321571361", "city": "Новосибирск", "lat": 55.0913681, "lon": 82.9545909, "name": "Прайм", "addr": "Учительская улица, 64", "status": "no", "fuels_now": "", "conflict": null, "src": "seed"}, {"id": "634418616", "city": "Новосибирск", "lat": 55.0814737, "lon": 82.9788055, "name": "ГазОйл", "addr": "ул Писемского, 24/13", "status": "no", "fuels_now": "", "conflict": null, "src": "seed"}, {"id": "740367087", "city": "Новосибирск", "lat": 55.1049832, "lon": 82.9514823, "name": "Родники", "addr": "ул Тюленина, 2А", "status": "no", "fuels_now": "", "conflict": null, "src": "seed"}, {"id": "634418617", "city": "Новосибирск", "lat": 55.1107747, "lon": 82.983342, "name": "АЗС", "addr": "ул Тайгинская, 13", "status": "no", "fuels_now": "", "conflict": null, "src": "seed"}, {"id": "683031010", "city": "Новосибирск", "lat": 55.0718736, "lon": 83.0139895, "name": "Лукойл", "addr": "пр-кт Дзержинского, 120", "status": "no", "fuels_now": "", "conflict": null, "src": "seed"}, {"id": "613604810", "city": "Новосибирск", "lat": 55.1284763, "lon": 82.9424361, "name": "FNN", "addr": "Лётный микрорайон", "status": "no", "fuels_now": "", "conflict": null, "src": "seed"}, {"id": "634408127", "city": "Новосибирск", "lat": 55.0480015, "lon": 83.066649, "name": "АГЗС", "addr": "ул Зеленодолинская, 2А", "status": "no", "fuels_now": "", "conflict": null, "src": "seed"}, {"id": "usr_em5ui1-_9Rc", "city": "Новосибирск", "lat": 55.047434995070134, "lon": 82.90126740932466, "name": "Прайм", "addr": "", "status": "no", "fuels_now": "", "conflict": null, "src": "seed"}, {"id": "usr_0XOGRKAQkgo", "city": "Новосибирск", "lat": 55.034169301452266, "lon": 83.00677043171267, "name": "Опти", "addr": "ул Лазурная, 2/3", "status": "no", "fuels_now": "", "conflict": null, "src": "seed"}, {"id": "usr_oPuR9a1NVjM", "city": "Новосибирск", "lat": 55.03144783947833, "lon": 83.00306117567222, "name": "Прайм", "addr": "", "status": "no", "fuels_now": "", "conflict": null, "src": "seed"}, {"id": "usr_mbRDBFt_NCk", "city": "Новосибирск", "lat": 55.042636829231725, "lon": 82.9839313030243, "name": "Горизонт", "addr": "", "status": "no", "fuels_now": "", "conflict": null, "src": "seed"}, {"id": "10093904541", "city": "Новосибирск", "lat": 55.0498014, "lon": 82.9334442, "name": "Teboil", "addr": "ул Писарева, 76", "status": "queue", "fuels_now": "92,95,98,100,ДТ", "conflict": null, "src": "seed"}, {"id": "10188028712", "city": "Новосибирск", "lat": 55.0494533, "lon": 82.9233476, "name": "АЗС", "addr": "ул Писарева, 38", "status": "queue", "fuels_now": "95", "conflict": null, "src": "seed"}, {"id": "10230879650", "city": "Новосибирск", "lat": 55.080839, "lon": 83.037004, "name": "Опти", "addr": "ул Ростовская, 60", "status": "yes", "fuels_now": "92,95,ДТ", "conflict": null, "src": "seed"}, {"id": "10230879652", "city": "Новосибирск", "lat": 54.8431, "lon": 82.9484, "name": "Опти", "addr": "ул Софийская, 18А/1", "status": "no", "fuels_now": "", "conflict": null, "src": "seed"}, {"id": "1118309363", "city": "Новосибирск", "lat": 54.9972404, "lon": 82.7919244, "name": "татнефть", "addr": "ул Станционная, 80А", "status": "no", "fuels_now": "", "conflict": null, "src": "seed"}, {"id": "1118313260", "city": "Новосибирск", "lat": 55.0544011, "lon": 82.9397367, "name": "Опти", "addr": "ул Ипподромская, 40", "status": "no", "fuels_now": "", "conflict": null, "src": "seed"}, {"id": "1118314157", "city": "Новосибирск", "lat": 55.0662373, "lon": 82.932787, "name": "Teboil", "addr": "ул Богдана Хмельницкого, 1/2", "status": "no", "fuels_now": "", "conflict": null, "src": "seed"}, {"id": "1118355955", "city": "Новосибирск", "lat": 54.860116, "lon": 82.9674629, "name": "Газпромнефть", "addr": "ул Молодости, 23", "status": "queue", "fuels_now": "92,98,100,ДТ", "conflict": null, "src": "seed"}, {"id": "1118360106", "city": "Новосибирск", "lat": 54.8559074, "lon": 82.9583616, "name": "Норд-Нск", "addr": "ул Варшавская, 1А", "status": null, "fuels_now": "", "conflict": null, "src": "seed"}, {"id": "1118381718", "city": "Новосибирск", "lat": 55.0419553, "lon": 83.0342626, "name": "Лукойл", "addr": "Гусинобродское шоссе, 41", "status": "no", "fuels_now": "", "conflict": null, "src": "seed"}, {"id": "1118486507", "city": "Новосибирск", "lat": 54.8789072, "lon": 82.757103, "name": "Гарантия", "addr": "ул Мелиораторов, 10А", "status": "yes", "fuels_now": "92,95,98,100", "conflict": null, "src": "seed"}, {"id": "1119622309", "city": "Новосибирск", "lat": 55.062628, "lon": 82.8913661, "name": "Опти", "addr": "ул Жуковского, 100А", "status": "no", "fuels_now": "", "conflict": null, "src": "seed"}, {"id": "1119628786", "city": "Новосибирск", "lat": 54.9426876, "lon": 82.8802914, "name": "ГазОйл", "addr": "ул Петухова, 8А", "status": "no", "fuels_now": "", "conflict": null, "src": "seed"}, {"id": "1241081316", "city": "Новосибирск", "lat": 54.9563201, "lon": 82.850742, "name": "Опти", "addr": "ул Тульская, 435/1", "status": "no", "fuels_now": "", "conflict": null, "src": "seed"}, {"id": "1264872037", "city": "Новосибирск", "lat": 55.1034219, "lon": 82.9560634, "name": "АЗС", "addr": "ул Мясниковой, 3", "status": "yes", "fuels_now": "95", "conflict": null, "src": "seed"}, {"id": "12995793029", "city": "Новосибирск", "lat": 55.01149, "lon": 82.81616, "name": "Газпромнефть", "addr": "ул 2-я Станционная, 27", "status": "no", "fuels_now": "", "conflict": null, "src": "seed"}, {"id": "12995793042", "city": "Новосибирск", "lat": 54.9961969, "lon": 82.9660678, "name": "Газпромнефть", "addr": "ул Большевистская, 50", "status": "no", "fuels_now": "", "conflict": null, "src": "seed"}, {"id": "12995793052", "city": "Новосибирск", "lat": 55.0504915, "lon": 82.8996755, "name": "Газпромнефть", "addr": "ул Нарымская, 100", "status": "no", "fuels_now": "", "conflict": null, "src": "seed"}, {"id": "12995793070", "city": "Новосибирск", "lat": 55.0268882, "lon": 82.8990116, "name": "Газпромнефть", "addr": "ул Фабричная, 18/2", "status": "queue", "fuels_now": "92,95,100,ДТ", "conflict": null, "src": "seed"}, {"id": "12995793071", "city": "Новосибирск", "lat": 55.0034154, "lon": 82.8695342, "name": "Газпромнефть", "addr": "пр-д Энергетиков, 4", "status": "queue", "fuels_now": "92,95,98", "conflict": null, "src": "seed"}, {"id": "12995793144", "city": "Новосибирск", "lat": 54.9713066, "lon": 83.0403489, "name": "Энергия", "addr": "Бердское шоссе, 1а", "status": "no", "fuels_now": "", "conflict": null, "src": "seed"}, {"id": "12995793288", "city": "Новосибирск", "lat": 55.0100677, "lon": 82.8762004, "name": "Газпромнефть", "addr": "пр-д Энергетиков, 1", "status": "no", "fuels_now": "", "conflict": null, "src": "seed"}, {"id": "13151015853", "city": "Новосибирск", "lat": 54.997667, "lon": 82.756296, "name": "Teboil", "addr": "ул Станционная, 88", "status": null, "fuels_now": "", "conflict": null, "src": "seed"}, {"id": "13285799037", "city": "Новосибирск", "lat": 55.0158558, "lon": 82.9223572, "name": "Энергия", "addr": "ул Фабричная, 4А", "status": "yes", "fuels_now": "95,100", "conflict": null, "src": "seed"}, {"id": "13285799038", "city": "Новосибирск", "lat": 54.9566459, "lon": 82.9544961, "name": "Энергия", "addr": "ул Тюменская, 14/1", "status": "no", "fuels_now": "", "conflict": null, "src": "seed"}, {"id": "13962174850", "city": "Новосибирск", "lat": 55.0418944, "lon": 82.9629147, "name": "Татнефть", "addr": "ул Фрунзе, 75", "status": "no", "fuels_now": "", "conflict": null, "src": "seed"}, {"id": "1445523826", "city": "Новосибирск", "lat": 54.9982239, "lon": 82.7811121, "name": "Хорос", "addr": "ул Станционная, 84", "status": "no", "fuels_now": "", "conflict": null, "src": "seed"}, {"id": "1445523834", "city": "Новосибирск", "lat": 54.9959042, "lon": 82.8308583, "name": "АЗС", "addr": "ул Станционная, 59Б", "status": "yes", "fuels_now": "", "conflict": null, "src": "seed"}, {"id": "1445523835", "city": "Новосибирск", "lat": 54.9975875, "lon": 82.7562772, "name": "Nafta24", "addr": "ул Станционная, 88", "status": "no", "fuels_now": "", "conflict": null, "src": "seed"}, {"id": "1445523837", "city": "Новосибирск", "lat": 54.9977275, "lon": 82.8252217, "name": "Nafta24", "addr": "ул Станционная, 64", "status": "no", "fuels_now": "", "conflict": null, "src": "seed"}, {"id": "1518009393", "city": "Новосибирск", "lat": 55.0912905, "lon": 82.9525227, "name": "АГЗС ГАЗОЙЛ", "addr": "ул Учительская, 65", "status": "no", "fuels_now": "", "conflict": null, "src": "seed"}, {"id": "2013516373", "city": "Новосибирск", "lat": 55.1178575, "lon": 82.9151046, "name": "Газпромнефть", "addr": "ул Николая Шипилова, 2", "status": "no", "fuels_now": "", "conflict": null, "src": "seed"}, {"id": "2206383746", "city": "Новосибирск", "lat": 55.0796873, "lon": 82.9808627, "name": "Опти", "addr": "ул Писемского, 10", "status": "no", "fuels_now": "", "conflict": null, "src": "seed"}, {"id": "280108526", "city": "Новосибирск", "lat": 55.0723217, "lon": 82.9099616, "name": "Топаз", "addr": "Красный пр-кт, 222", "status": "no", "fuels_now": "", "conflict": null, "src": "seed"}, {"id": "286759696", "city": "Новосибирск", "lat": 55.0377956, "lon": 82.9384637, "name": "Газпромнефть", "addr": "ул Фрунзе, 122", "status": "queue", "fuels_now": "92,95,100,ДТ", "conflict": null, "src": "seed"}, {"id": "3038469908", "city": "Новосибирск", "lat": 55.0341451, "lon": 82.9424588, "name": "ГазОйл", "addr": "пер Ядринцевский подъем, 1", "status": "no", "fuels_now": "", "conflict": null, "src": "seed"}, {"id": "306101913", "city": "Новосибирск", "lat": 54.9972678, "lon": 82.8488228, "name": "Газпромнефть", "addr": "ул Станционная, 36/1", "status": "no", "fuels_now": "", "conflict": null, "src": "seed"}, {"id": "3710986596", "city": "Новосибирск", "lat": 54.9818959, "lon": 83.0057508, "name": "Новосибирск", "addr": "ул Большевистская, 278", "status": "no", "fuels_now": "", "conflict": null, "src": "seed"}, {"id": "393928716", "city": "Новосибирск", "lat": 54.9732875, "lon": 82.9040373, "name": "Газпромнефть", "addr": "ул Немировича-Данченко, 118/2", "status": "no", "fuels_now": "", "conflict": null, "src": "seed"}, {"id": "3963848173", "city": "Новосибирск", "lat": 55.1029535, "lon": 82.9563862, "name": "АЗС", "addr": "ул Мясниковой, 3", "status": "no", "fuels_now": "", "conflict": null, "src": "seed"}, {"id": "3986701561", "city": "Новосибирск", "lat": 55.0200745, "lon": 82.9355784, "name": "Татнефть", "addr": "ул Кирова, 40", "status": "no", "fuels_now": "", "conflict": null, "src": "seed"}]}