{"city": "Краснодар", "center": [45.035, 39.03], "stations": [{"id": "usr_iKknQaj26vw", "lat": 45.03473499691122, "lon": 38.92380237579345, "name": "Лукойл", "brand": "Лукойл", "addr": "", "status": "no", "fuels_now": "", "conflict": null, "src": "seed"}, {"id": "usr_O6bDwE-V98Q", "lat": 45.04155413267522, "lon": 39.02659043669701, "name": "Лукойл", "brand": "Лукойл", "addr": "", "status": "no", "fuels_now": "", "conflict": null, "src": "seed"}, {"id": "usr_C8pzQSLqECA", "lat": 45.11132435153792, "lon": 39.01174505038813, "name": "Газпром", "brand": "Газпром", "addr": "", "status": "no", "fuels_now": "", "conflict": null, "src": "seed"}, {"id": "usr_fquQVYiEEuY", "lat": 45.097967885282785, "lon": 38.99856448173525, "name": "Лукойл", "brand": "Лукойл", "addr": "", "status": "no", "fuels_now": "", "conflict": null, "src": "seed"}, {"id": "usr_nUS8yQtVVUY", "lat": 45.036022403382745, "lon": 39.05906559034013, "name": "Роснефть", "brand": "Роснефть", "addr": "", "status": "yes", "fuels_now": "", "conflict": null, "src": "seed"}, {"id": "usr_FbdHFj4x3Ws", "lat": 45.0821072579691, "lon": 39.01448030938934, "name": "Тебойл", "brand": "Тебойл", "addr": "", "status": "no", "fuels_now": "", "conflict": null, "src": "seed"}, {"id": "usr_iTdI5qiI0wc", "lat": 45.0957084280294, "lon": 38.97797942161561, "name": "Роснефть", "brand": "Роснефть", "addr": "", "status": "queue", "fuels_now": "92,95,98,100,ДТ", "conflict": "yes", "src": "seed"}, {"id": "usr_Xd-zMiNE5sI", "lat": 45.097263550098674, "lon": 39.094519615173326, "name": "Газпромнефть", "brand": "Газпромнефть", "addr": "", "status": "no", "fuels_now": "", "conflict": null, "src": "seed"}, {"id": "usr_ZfVezJzW8mI", "lat": 45.07517167027069, "lon": 39.00131464004517, "name": "Тебойл", "brand": "Тебойл", "addr": "", "status": "queue", "fuels_now": "92,95,ДТ", "conflict": null, "src": "seed"}, {"id": "usr_LkiUyGweCPA", "lat": 45.098571, "lon": 38.911436, "name": "Газпромнефть", "brand": "Газпромнефть", "addr": "", "status": "no", "fuels_now": "", "conflict": null, "src": "seed"}, {"id": "usr_VlOBRFPDNfM", "lat": 45.072658751523846, "lon": 38.90175640583039, "name": "Тебоил", "brand": "Тебоил", "addr": "", "status": "queue", "fuels_now": "92,ДТ", "conflict": null, "src": "seed"}, {"id": "usr_ZVHrHIu6s9E", "lat": 45.121406055951816, "lon": 39.00208711624146, "name": "Лукойл", "brand": "Лукойл", "addr": "", "status": "queue", "fuels_now": "92,ДТ", "conflict": "yes", "src": "seed"}, {"id": "usr_cOsnRSEGXLM", "lat": 45.09119264688961, "lon": 39.013704324069856, "name": "Газпром", "brand": "Газпром", "addr": "", "status": "no", "fuels_now": "", "conflict": null, "src": "seed"}, {"id": "usr_tau-2imsFHo", "lat": 45.093643377159786, "lon": 39.013145833577646, "name": "ЮНК", "brand": "ЮНК", "addr": "", "status": "no", "fuels_now": "", "conflict": null, "src": "seed"}, {"id": "usr_cViaD9vufMo", "lat": 45.09575576394458, "lon": 38.979347348213196, "name": "Лукойл", "brand": "Лукойл", "addr": "", "status": "queue", "fuels_now": "ДТ", "conflict": "low", "src": "seed"}, {"id": "usr_CD2mFw9yZFY", "lat": 45.01216448791366, "lon": 39.06860813497133, "name": "Газпром", "brand": "Газпром", "addr": "", "status": "no", "fuels_now": "", "conflict": null, "src": "seed"}, {"id": "usr_gaTTmoCKL2c", "lat": 45.00509752642885, "lon": 39.06811773768823, "name": "Газпром", "brand": "Газпром", "addr": "", "status": "no", "fuels_now": "", "conflict": null, "src": "seed"}, {"id": "usr_ARbAelBSSOE", "lat": 45.08858948561753, "lon": 39.0214392985057, "name": "Газпромнефть", "brand": "Газпромнефть", "addr": "", "status": "no", "fuels_now": "", "conflict": null, "src": "seed"}, {"id": "usr_AE2wBzsou5s", "lat": 45.0718459805796, "lon": 38.99524739254369, "name": "Уфимнефть", "brand": "Уфимнефть", "addr": "", "status": "no", "fuels_now": "", "conflict": null, "src": "seed"}, {"id": "usr_67OBZioJhN8", "lat": 45.06558043832064, "lon": 38.98553532528958, "name": "Сити Ойл", "brand": "Сити Ойл", "addr": "", "status": "no", "fuels_now": "", "conflict": null, "src": "seed"}, {"id": "usr_S1LP3cOiG_4", "lat": 45.028890452484625, "lon": 39.01615397102226, "name": "Газпромнефть", "brand": "Газпромнефть", "addr": "", "status": "no", "fuels_now": "", "conflict": null, "src": "seed"}, {"id": "usr_KbmZNmfiDcU", "lat": 45.006547264339574, "lon": 39.10388450292225, "name": "Роснефть", "brand": "Роснефть", "addr": "", "status": "queue", "fuels_now": "", "conflict": null, "src": "seed"}, {"id": "usr_t7tGK6yL4wI", "lat": 45.03818904902409, "lon": 38.91479194164276, "name": "Petrol Office", "brand": "Petrol Office", "addr": "", "status": "queue", "fuels_now": "", "conflict": null, "src": "seed"}, {"id": "usr_gNgNgO7AYl8", "lat": 45.11964321818532, "lon": 39.01082432280418, "name": "Лукойл", "brand": "Лукойл", "addr": "", "status": "no", "fuels_now": "", "conflict": null, "src": "seed"}, {"id": "usr_WmeXvuEz600", "lat": 45.0270240948385, "lon": 38.944830894415645, "name": "Лукойл", "brand": "Лукойл", "addr": "", "status": "queue", "fuels_now": "92,95,ДТ", "conflict": null, "src": "seed"}, {"id": "usr_xp6VYK8Qc0Y", "lat": 45.042036, "lon": 39.102655, "name": "Лукойл", "brand": "Лукойл", "addr": "", "status": "yes", "fuels_now": "92,95,98,100,ДТ", "conflict": null, "src": "seed"}, {"id": "usr_FHpJncf3iS0", "lat": 45.0041130820462, "lon": 39.10623696436801, "name": "Газон+", "brand": "Газон+", "addr": "", "status": "no", "fuels_now": "", "conflict": null, "src": "seed"}, {"id": "usr_8zvkGO7mfto", "lat": 45.053560037074, "lon": 38.909799456596396, "name": "Газпрайм", "brand": "Газпрайм", "addr": "", "status": "no", "fuels_now": "", "conflict": null, "src": "seed"}, {"id": "usr_AYDUUI99srg", "lat": 45.12552795747562, "lon": 39.009117186069496, "name": "RosOil", "brand": "RosOil", "addr": "", "status": "no", "fuels_now": "", "conflict": "queue", "src": "seed"}, {"id": "2954162357", "lat": 45.0845206, "lon": 38.9009984, "name": "Роснефть", "brand": "", "addr": "", "status": "no", "fuels_now": "", "conflict": null, "src": "seed"}, {"id": "3048710796", "lat": 45.0073695, "lon": 38.9318607, "name": "Лукойл", "brand": "Лукойл", "addr": "Тургеневское шоссе, 32", "status": "yes", "fuels_now": "ДТ", "conflict": null, "src": "seed"}, {"id": "1116762321", "lat": 45.0022339, "lon": 38.9634664, "name": "Роснефть", "brand": "Роснефть", "addr": "улица Захарова, 5", "status": "no", "fuels_now": "", "conflict": null, "src": "seed"}, {"id": "1980859821", "lat": 45.0071491, "lon": 38.9680675, "name": "Лукойл", "brand": "Лукойл", "addr": "улица Захарова, 5А", "status": "no", "fuels_now": "", "conflict": null, "src": "seed"}, {"id": "1984151658", "lat": 45.0144, "lon": 38.97758, "name": "Газпромнефть", "brand": "Газпромнефть", "addr": "", "status": "queue", "fuels_now": "92,95,98,100,ДТ", "conflict": null, "src": "seed"}, {"id": "1980661172", "lat": 45.0133038, "lon": 38.9819866, "name": "Лукойл", "brand": "Лукойл", "addr": "Ставропольская улица, 2/1", "status": "queue", "fuels_now": "92,95,100", "conflict": null, "src": "seed"}, {"id": "344120474", "lat": 45.0217882, "lon": 38.9843633, "name": "Кубанский топливный союз", "brand": "", "addr": "", "status": "no", "fuels_now": "", "conflict": null, "src": "seed"}, {"id": "3823180375", "lat": 45.0252331, "lon": 38.9929664, "name": "Газпромнефть", "brand": "Газпромнефть", "addr": "Переходная улица, 3", "status": "yes", "fuels_now": "92,95,98,100", "conflict": null, "src": "seed"}, {"id": "1984205576", "lat": 45.0230522, "lon": 38.9970861, "name": "Роснефть", "brand": "Роснефть", "addr": "улица Вишняковой, 146", "status": "no", "fuels_now": "", "conflict": null, "src": "seed"}, {"id": "1402172096", "lat": 45.0368914, "lon": 38.9554, "name": "Роснефть", "brand": "Роснефть", "addr": "улица Кубанская Набережная, 47/1", "status": "queue", "fuels_now": "92,95,98,100,ДТ", "conflict": null, "src": "seed"}, {"id": "1999633012", "lat": 45.0487828, "lon": 38.9626599, "name": "Роснефть", "brand": "Роснефть", "addr": "улица Котовского, 76/1", "status": "queue", "fuels_now": "92,95,98,100,ДТ", "conflict": null, "src": "seed"}, {"id": "3430025117", "lat": 45.0467643, "lon": 38.9742388, "name": "Rusoil", "brand": "", "addr": "", "status": "no", "fuels_now": "", "conflict": null, "src": "seed"}, {"id": "471807116", "lat": 45.0447008, "lon": 38.9820828, "name": "Лукойл", "brand": "Лукойл", "addr": "Путевая улица, 3/1", "status": "no", "fuels_now": "", "conflict": null, "src": "seed"}, {"id": "13945142544", "lat": 45.0624624, "lon": 38.9180181, "name": "Роснефть", "brand": "Роснефть", "addr": "улица Академика Лукьяненко, 6", "status": "no", "fuels_now": "", "conflict": null, "src": "seed"}, {"id": "11872195339", "lat": 45.0702389, "lon": 38.905319, "name": "Газпром", "brand": "Газпром", "addr": "", "status": "no", "fuels_now": "", "conflict": null, "src": "seed"}, {"id": "725142999", "lat": 45.068202, "lon": 38.9099225, "name": "Опти", "brand": "", "addr": "", "status": "queue", "fuels_now": "92,95,ДТ", "conflict": null, "src": "seed"}, {"id": "806850361", "lat": 45.0621257, "lon": 38.966694, "name": "Rusoil", "brand": "", "addr": "", "status": "no", "fuels_now": "", "conflict": null, "src": "seed"}, {"id": "1966606100", "lat": 45.0600208, "lon": 38.9617549, "name": "Лукойл", "brand": "Лукойл", "addr": "улица Тургенева, 138/5", "status": "no", "fuels_now": "", "conflict": null, "src": "seed"}, {"id": "1979232188", "lat": 45.0635426, "lon": 38.9852588, "name": "Лукойл", "brand": "Лукойл", "addr": "Ростовское шоссе, 3", "status": "no", "fuels_now": "", "conflict": null, "src": "seed"}, {"id": "3191138443", "lat": 45.0702869, "lon": 38.9872042, "name": "Татнефть", "brand": "Татнефть", "addr": "Ростовское шоссе, 12/13", "status": "queue", "fuels_now": "", "conflict": null, "src": "seed"}, {"id": "2512754218", "lat": 45.0805208, "lon": 38.9751656, "name": "Газпром", "brand": "Газпром", "addr": "улица Дзержинского, 64", "status": "no", "fuels_now": "", "conflict": null, "src": "seed"}, {"id": "2512754226", "lat": 45.0832654, "lon": 38.9759661, "name": "Уфимнефть", "brand": "", "addr": "улица Дзержинского, 68", "status": "yes", "fuels_now": "92", "conflict": "queue", "src": "seed"}, {"id": "452244243", "lat": 45.0916513, "lon": 38.9923262, "name": "Роснефть", "brand": "", "addr": "", "status": "no", "fuels_now": "", "conflict": null, "src": "seed"}, {"id": "638390026", "lat": 45.0793313, "lon": 39.0006889, "name": "Роснефть", "brand": "Роснефть", "addr": "", "status": "no", "fuels_now": "", "conflict": null, "src": "seed"}, {"id": "1301568400", "lat": 45.0947675, "lon": 38.9923926, "name": "Газ", "brand": "", "addr": "", "status": "no", "fuels_now": "", "conflict": null, "src": "seed"}, {"id": "1977815196", "lat": 45.1023245, "lon": 38.9814336, "name": "Rusoil", "brand": "Rusoil", "addr": "улица Дзержинского, 227", "status": "no", "fuels_now": "", "conflict": null, "src": "seed"}, {"id": "11032162516", "lat": 45.1267051, "lon": 38.9072509, "name": "АЗС", "brand": "", "addr": "", "status": "no", "fuels_now": "", "conflict": null, "src": "seed"}, {"id": "6327755789", "lat": 45.1075695, "lon": 38.938104, "name": "Газпромнефть", "brand": "Газпромнефть", "addr": "", "status": "no", "fuels_now": "", "conflict": null, "src": "seed"}, {"id": "1977826223", "lat": 45.1164419, "lon": 38.9859013, "name": "Роснефть", "brand": "ТНК", "addr": "улица Дзержинского, 108", "status": "queue", "fuels_now": "ДТ", "conflict": null, "src": "seed"}, {"id": "1979215679", "lat": 45.1094262, "lon": 38.9955629, "name": "RusOil", "brand": "", "addr": "Ростовское шоссе, 32", "status": "no", "fuels_now": "", "conflict": null, "src": "seed"}, {"id": "6327755787", "lat": 45.1193948, "lon": 38.985058, "name": "Роснефть", "brand": "Роснефть", "addr": "", "status": "no", "fuels_now": "", "conflict": null, "src": "seed"}, {"id": "1978980336", "lat": 45.1246854, "lon": 38.9879842, "name": "Лукойл", "brand": "Лукойл", "addr": "улица Дзержинского, 251", "status": "no", "fuels_now": "", "conflict": null, "src": "seed"}, {"id": "13226771261", "lat": 45.1207738, "lon": 38.9988982, "name": "Роснефть", "brand": "Роснефть", "addr": "Ростовское шоссе, 25/1", "status": "no", "fuels_now": "", "conflict": "yes", "src": "seed"}, {"id": "13226771271", "lat": 45.1280947, "lon": 38.9973472, "name": "PNB", "brand": "PNB", "addr": "1-я Дорожная улица, 2", "status": "no", "fuels_now": "", "conflict": null, "src": "seed"}, {"id": "13226771272", "lat": 45.1307342, "lon": 38.9970895, "name": "Газпромнефть", "brand": "Газпромнефть", "addr": "1-я Дорожная улица, 33", "status": "queue", "fuels_now": "92,95,100,ДТ", "conflict": null, "src": "seed"}, {"id": "510146462", "lat": 45.0237553, "lon": 39.009479, "name": "PNB", "brand": "", "addr": "улица Шевченко, 148", "status": "no", "fuels_now": "", "conflict": null, "src": "seed"}, {"id": "3193004761", "lat": 45.025161, "lon": 39.0153838, "name": "ТНК", "brand": "ТНК", "addr": "", "status": "no", "fuels_now": "", "conflict": null, "src": "seed"}, {"id": "297719645", "lat": 45.0198613, "lon": 39.0242254, "name": "Лукойл", "brand": "Лукойл", "addr": "улица Степана Разина, 57", "status": "no", "fuels_now": "", "conflict": null, "src": "seed"}, {"id": "1989406581", "lat": 45.0143465, "lon": 39.046543, "name": "Газпром", "brand": "Газпром", "addr": "Старокубанская улица, 98", "status": "no", "fuels_now": "", "conflict": null, "src": "seed"}, {"id": "1965108115", "lat": 45.0165901, "lon": 39.0541191, "name": "Роснефть", "brand": "Роснефть", "addr": "улица Селезнёва, 197/5", "status": "queue", "fuels_now": "92,95,ДТ", "conflict": null, "src": "seed"}, {"id": "1965108129", "lat": 45.0180473, "lon": 39.0531389, "name": "Пропан", "brand": "", "addr": "", "status": "yes", "fuels_now": "95", "conflict": null, "src": "seed"}, {"id": "2332703041", "lat": 45.0177787, "lon": 39.0534116, "name": "Газпромнефть", "brand": "Газпромнефть", "addr": "улица Селезнёва, 197/2", "status": "queue", "fuels_now": "92,95,98,100,ДТ", "conflict": null, "src": "seed"}, {"id": "1979264104", "lat": 45.0224594, "lon": 39.0490316, "name": "Лукойл", "brand": "Лукойл", "addr": "Старокубанская улица, 131", "status": "no", "fuels_now": "", "conflict": null, "src": "seed"}, {"id": "2496973351", "lat": 45.0210134, "lon": 39.051173, "name": "Rusoil", "brand": "", "addr": "улица Селезнёва, 193/2", "status": "no", "fuels_now": "", "conflict": null, "src": "seed"}, {"id": "2010549128", "lat": 45.0225537, "lon": 39.0540558, "name": "Teboil", "brand": "", "addr": "Сормовская улица, 2/1", "status": "queue", "fuels_now": "92,95,98,100,ДТ", "conflict": null, "src": "seed"}, {"id": "3215314950", "lat": 45.0281198, "lon": 39.0150763, "name": "Лукойл", "brand": "Лукойл", "addr": "Новороссийская улица, 104/1", "status": "no", "fuels_now": "", "conflict": null, "src": "seed"}, {"id": "2077120925", "lat": 45.0324687, "lon": 39.0241007, "name": "Лукойл", "brand": "Лукойл", "addr": "Новороссийская улица, 3", "status": "no", "fuels_now": "", "conflict": null, "src": "seed"}, {"id": "13019721498", "lat": 45.0313209, "lon": 39.0286423, "name": "Газпромнефть", "brand": "Газпромнефть", "addr": "Ялтинская улица, 30", "status": "queue", "fuels_now": "92,95,100,ДТ", "conflict": null, "src": "seed"}, {"id": "2678529351", "lat": 45.0369364, "lon": 39.0283216, "name": "АГНКС метан", "brand": "", "addr": "Восточно-Кругликовская улица, 4", "status": "no", "fuels_now": "", "conflict": null, "src": "seed"}, {"id": "7829807792", "lat": 45.0378539, "lon": 39.028598, "name": "Газпромнефть", "brand": "Газпромнефть", "addr": "", "status": "no", "fuels_now": "", "conflict": null, "src": "seed"}, {"id": "11901826117", "lat": 45.0315588, "lon": 39.0413614, "name": "Газпромнефть", "brand": "Газпромнефть", "addr": "", "status": "queue", "fuels_now": "92,95,98,100,ДТ", "conflict": null, "src": "seed"}, {"id": "4575378690", "lat": 45.0355743, "lon": 39.0339064, "name": "Teboil", "brand": "Teboil", "addr": "", "status": "no", "fuels_now": "", "conflict": null, "src": "seed"}, {"id": "3192851229", "lat": 45.0296809, "lon": 39.0575872, "name": "Газпром", "brand": "Газпром", "addr": "улица Лизы Чайкиной, 6/1", "status": "no", "fuels_now": "", "conflict": null, "src": "seed"}, {"id": "3192851230", "lat": 45.0300849, "lon": 39.0572759, "name": "Лукойл", "brand": "Лукойл", "addr": "улица Лизы Чайкиной, 6А", "status": "no", "fuels_now": "", "conflict": null, "src": "seed"}, {"id": "1984318138", "lat": 45.0130859, "lon": 39.0651629, "name": "СитиОйл", "brand": "СитиОйл", "addr": "улица Мачуги, 9", "status": "no", "fuels_now": "", "conflict": null, "src": "seed"}, {"id": "11883315215", "lat": 45.0117088, "lon": 39.0659411, "name": "ГНК", "brand": "ГНК", "addr": "", "status": "no", "fuels_now": "", "conflict": null, "src": "seed"}, {"id": "6000377787", "lat": 45.0233665, "lon": 39.0606424, "name": "Лукойл", "brand": "Лукойл", "addr": "Сормовская улица, 4/1", "status": "no", "fuels_now": "", "conflict": null, "src": "seed"}, {"id": "2261343234", "lat": 45.0149858, "lon": 39.0968679, "name": "АГЗС, газ пропан", "brand": "", "addr": "Бородинская улица, 148", "status": null, "fuels_now": "", "conflict": null, "src": "seed"}, {"id": "13944707011", "lat": 45.0146864, "lon": 39.1047503, "name": "Газпром", "brand": "", "addr": "улица Крупской, 8/2", "status": "no", "fuels_now": "", "conflict": null, "src": "seed"}, {"id": "13943932460", "lat": 45.0327563, "lon": 39.0758222, "name": "АЗС", "brand": "", "addr": "улица Дежнёва, 40/3", "status": "no", "fuels_now": "", "conflict": null, "src": "seed"}, {"id": "11871542973", "lat": 45.0331127, "lon": 39.0763461, "name": "Роснефть", "brand": "Роснефть", "addr": "", "status": "no", "fuels_now": "", "conflict": null, "src": "seed"}, {"id": "13321535017", "lat": 45.0361091, "lon": 39.0728004, "name": "АЗС", "brand": "", "addr": "", "status": "no", "fuels_now": "", "conflict": null, "src": "seed"}, {"id": "530182118", "lat": 45.0326736, "lon": 39.0979018, "name": "АЗС", "brand": "", "addr": "", "status": "no", "fuels_now": "", "conflict": null, "src": "seed"}, {"id": "1233361842", "lat": 45.0375257, "lon": 39.0863753, "name": "Ростнефть", "brand": "Independent", "addr": "", "status": "no", "fuels_now": "", "conflict": null, "src": "seed"}, {"id": "13321535053", "lat": 45.0386714, "lon": 39.0923565, "name": "RusOil", "brand": "", "addr": "", "status": "no", "fuels_now": "", "conflict": null, "src": "seed"}, {"id": "530185515", "lat": 45.0372402, "lon": 39.1042726, "name": "Ситиойл", "brand": "", "addr": "Сормовская улица, 200", "status": "no", "fuels_now": "", "conflict": null, "src": "seed"}, {"id": "9001256224", "lat": 45.0412796, "lon": 39.0960501, "name": "АЗС", "brand": "", "addr": "", "status": "no", "fuels_now": "", "conflict": null, "src": "seed"}, {"id": "2001028653", "lat": 45.0429068, "lon": 39.1082557, "name": "Газпромнефть", "brand": "Газпром Нефть", "addr": "Уральская улица, 194/1", "status": "queue", "fuels_now": "92,95,98,100,ДТ", "conflict": null, "src": "seed"}, {"id": "910828882", "lat": 45.0717533, "lon": 39.0146922, "name": "Лукойл", "brand": "Лукойл", "addr": "Российская улица, 101", "status": "no", "fuels_now": "", "conflict": "low", "src": "seed"}, {"id": "4638013632", "lat": 45.0073927, "lon": 39.1168696, "name": "АЗС", "brand": "", "addr": "", "status": "no", "fuels_now": "", "conflict": null, "src": "seed"}, {"id": "4730208803", "lat": 45.0435259, "lon": 39.1163288, "name": "Сивнефть", "brand": "", "addr": "Уральская улица, 212", "status": "no", "fuels_now": "", "conflict": null, "src": "seed"}, {"id": "452244247", "lat": 45.1338199, "lon": 39.0244543, "name": "Уфимнефть", "brand": "АЗС \"Уфимнефть\"", "addr": "", "status": "no", "fuels_now": "", "conflict": null, "src": "seed"}, {"id": "usr_iBwQNKE5ZlE", "lat": 45.1273913446656, "lon": 39.013583014061425, "name": "Газпром", "brand": "Газпром", "addr": "", "status": "no", "fuels_now": "", "conflict": null, "src": "seed"}]}